$GPTXT,01,01,02,u-blox ag - www.u-blox.com*50
$GPTXT,01,01,02,HW  UBX-G70xx   00070000 FF7FFFFFo*69
$GPTXT,01,01,02,ROM CORE 1.00 (59842) Jun 27 2012 17:43:52*59
$GPTXT,01,01,02,PROTVER 14.00*1E
$GPTXT,01,01,02,ANTSUPERV=AC SD PDoS SR*20
$GPTXT,01,01,02,ANTSTATUS=OK*3B
$GPTXT,01,01,02,LLC FFFFFFFF-FFFFFFFF-FFFFFFFF-FFFFFFFF-FFFFFFFD*2C
$GPRMC,092817.00,A,3912.14910,N,00917.78082,E,3.760,198.16,130122,,,A*63
$GPVTG,198.16,T,,M,3.760,N,6.963,K,A*32
$GPGGA,092817.00,3912.14910,N,00917.78082,E,1,09,0.96,1.5,M,44.9,M,,*5C
$GPGSA,A,3,30,20,05,14,13,07,15,09,02,,,,1.52,0.96,1.17*07
$GPGSV,4,1,13,02,09,227,32,05,58,289,38,07,35,051,30,08,01,051,*78
$GPGSV,4,2,13,09,11,101,30,11,12,217,28,13,43,302,32,14,48,141,34*75
$GPGSV,4,3,13,15,13,297,38,18,03,327,24,20,62,224,36,28,33,162,31*7D
$GPGSV,4,4,13,30,64,043,37*49
$GPGLL,3912.14910,N,00917.78082,E,092817.00,A,A*62
$GPRMC,092818.00,A,3912.14808,N,00917.78034,E,3.803,196.84,130122,,,A*66
$GPVTG,196.84,T,,M,3.803,N,7.044,K,A*30
$GPGGA,092818.00,3912.14808,N,00917.78034,E,1,09,0.96,1.7,M,44.9,M,,*54
$GPGSA,A,3,30,20,05,14,13,07,15,09,02,,,,1.52,0.96,1.17*07
$GPGSV,4,1,13,02,09,227,32,05,58,289,33,07,35,051,35,08,01,051,*76
$GPGSV,4,2,13,09,11,101,30,11,12,217,28,13,43,302,39,14,48,141,34*7E
$GPGSV,4,3,13,15,13,297,38,18,03,327,23,20,62,224,36,28,33,162,31*7A
$GPGSV,4,4,13,30,64,043,39*47
$GPGLL,3912.14808,N,00917.78034,E,092818.00,A,A*68
$GPRMC,092819.00,A,3912.14713,N,00917.77984,E,3.861,197.71,130122,,,A*60
$GPVTG,197.71,T,,M,3.861,N,7.151,K,A*3A
$GPGGA,092819.00,3912.14713,N,00917.77984,E,1,08,1.20,2.0,M,44.9,M,,*54
$GPGSA,A,3,30,20,05,14,13,07,15,09,,,,,1.84,1.20,1.40*00
$GPGSV,4,1,13,02,09,227,31,05,58,289,33,07,35,051,36,08,01,051,*76
$GPGSV,4,2,13,09,11,101,30,11,12,217,16,13,43,302,40,14,48,141,38*71
$GPGSV,4,3,13,15,13,297,35,18,03,327,21,20,62,224,37,28,33,162,33*76
$GPGSV,4,4,13,30,64,043,38*46
$GPGLL,3912.14713,N,00917.77984,E,092819.00,A,A*61
$GPRMC,092820.00,A,3912.14624,N,00917.77944,E,3.195,198.17,130122,,,A*6E
$GPVTG,198.17,T,,M,3.195,N,5.916,K,A*3E
$GPGGA,092820.00,3912.14624,N,00917.77944,E,1,08,1.20,1.9,M,44.9,M,,*5D
$GPGSA,A,3,30,20,05,14,13,07,15,09,,,,,1.84,1.20,1.40*00
$GPGSV,4,1,13,02,09,227,26,05,58,289,25,07,35,051,25,08,01,051,*75
$GPGSV,4,2,13,09,11,101,23,11,12,217,24,13,43,302,31,14,48,141,25*78
$GPGSV,4,3,13,15,13,297,32,18,03,327,22,20,62,224,26,28,33,162,24*74
$GPGSV,4,4,13,30,64,043,35*4B
$GPGLL,3912.14624,N,00917.77944,E,092820.00,A,A*62
$GPRMC,092821.00,A,3912.14508,N,00917.77906,E,4.089,196.39,130122,,,A*6D
$GPVTG,196.39,T,,M,4.089,N,7.572,K,A*3B
$GPGGA,092821.00,3912.14508,N,00917.77906,E,1,09,0.96,1.9,M,44.9,M,,*5A
$GPGSA,A,3,30,20,05,14,13,07,15,09,02,,,,1.52,0.96,1.17*07
$GPGSV,4,1,13,02,09,227,37,05,58,289,30,07,35,051,34,08,01,051,*71
$GPGSV,4,2,13,09,11,101,35,11,12,217,31,13,43,302,30,14,48,141,35*7B
$GPGSV,4,3,13,15,13,297,43,18,03,327,23,20,62,224,38,28,33,162,30*79
$GPGSV,4,4,13,30,64,043,43*4A
$GPGLL,3912.14508,N,00917.77906,E,092821.00,A,A*68
$GPRMC,092822.00,A,3912.14379,N,00917.77870,E,4.041,196.85,130122,,,A*6D
$GPVTG,196.85,T,,M,4.041,N,7.483,K,A*37
$GPGGA,092822.00,3912.14379,N,00917.77870,E,1,09,0.96,2.0,M,44.9,M,,*53
$GPGSA,A,3,30,20,05,14,13,07,15,09,02,,,,1.52,0.96,1.17*07
$GPGSV,4,1,13,02,09,227,35,05,58,289,34,07,35,051,32,08,01,051,*71
$GPGSV,4,2,13,09,11,101,29,11,12,217,31,13,43,302,39,14,48,141,31*7B
$GPGSV,4,3,13,15,13,297,41,18,03,327,25,20,62,224,37,28,33,162,30*72
$GPGSV,4,4,13,30,64,043,42*4B
$GPGLL,3912.14379,N,00917.77870,E,092822.00,A,A*6B
$GPRMC,092823.00,A,3912.14280,N,00917.77829,E,3.989,199.20,130122,,,A*6D
$GPVTG,199.20,T,,M,3.989,N,7.388,K,A*31
$GPGGA,092823.00,3912.14280,N,00917.77829,E,1,08,1.09,2.0,M,44.9,M,,*5F
$GPGSA,A,3,30,20,05,14,13,07,15,02,,,,,1.84,1.09,1.48*08
$GPGSV,4,1,13,02,09,227,34,05,58,289,40,07,35,051,35,08,01,051,*74
$GPGSV,4,2,13,09,11,101,20,11,12,217,33,13,43,302,44,14,48,141,39*72
$GPGSV,4,3,13,15,13,297,42,18,03,327,26,20,62,224,27,28,33,162,37*74
$GPGSV,4,4,13,30,64,043,40*49
$GPGLL,3912.14280,N,00917.77829,E,092823.00,A,A*61
$GPRMC,092824.00,A,3912.14165,N,00917.77772,E,4.012,199.91,130122,,,A*65
$GPVTG,199.91,T,,M,4.012,N,7.430,K,A*33
$GPGGA,092824.00,3912.14165,N,00917.77772,E,1,09,0.96,2.4,M,44.9,M,,*53
$GPGSA,A,3,30,20,05,14,13,07,15,09,02,,,,1.52,0.96,1.17*07
$GPGSV,4,1,13,02,09,227,31,05,58,289,27,07,35,051,26,08,01,051,*72
$GPGSV,4,2,13,09,11,101,29,11,12,217,28,13,43,302,38,14,48,141,39*7A
$GPGSV,4,3,13,15,13,297,42,18,03,327,31,20,62,224,37,28,33,162,33*77
$GPGSV,4,4,13,30,64,043,42*4B
$GPGLL,3912.14165,N,00917.77772,E,092824.00,A,A*6F
$GPRMC,092825.00,A,3912.14062,N,00917.77711,E,3.989,201.36,130122,,,A*64
$GPVTG,201.36,T,,M,3.989,N,7.388,K,A*34
$GPGGA,092825.00,3912.14062,N,00917.77711,E,1,09,0.96,2.7,M,44.9,M,,*52
$GPGSA,A,3,30,20,05,14,13,07,15,09,02,,,,1.52,0.96,1.17*07
$GPGSV,4,1,13,02,09,227,31,05,58,289,32,07,35,051,27,08,01,051,*77
$GPGSV,4,2,13,09,11,101,31,11,12,217,33,13,43,302,40,14,48,141,33*7C
$GPGSV,4,3,13,15,13,297,38,18,03,327,25,20,62,224,37,28,33,162,36*7A
$GPGSV,4,4,13,30,64,043,38*46
$GPGLL,3912.14062,N,00917.77711,E,092825.00,A,A*6D
$GPRMC,092826.00,A,3912.13952,N,00917.77662,E,3.782,201.56,130122,,,A*6C
$GPVTG,201.56,T,,M,3.782,N,7.005,K,A*31
$GPGGA,092826.00,3912.13952,N,00917.77662,E,1,09,0.96,3.0,M,44.9,M,,*5F
$GPGSA,A,3,30,20,05,14,13,07,15,09,02,,,,1.52,0.96,1.17*07
$GPGSV,4,1,13,02,09,227,31,05,58,289,38,07,35,051,37,08,01,051,*7C
$GPGSV,4,2,13,09,11,101,31,11,12,217,36,13,43,302,42,14,48,141,30*78
$GPGSV,4,3,13,15,13,297,38,18,03,327,25,20,62,224,38,28,33,162,35*76
$GPGSV,4,4,13,30,64,043,41*48
$GPGLL,3912.13952,N,00917.77662,E,092826.00,A,A*66
$GPRMC,092827.00,A,3912.13852,N,00917.77617,E,3.918,201.26,130122,,,A*64
$GPVTG,201.26,T,,M,3.918,N,7.256,K,A*3F
$GPGGA,092827.00,3912.13852,N,00917.77617,E,1,09,0.96,2.9,M,44.9,M,,*55
$GPGSA,A,3,30,20,05,14,13,07,15,09,02,,,,1.52,0.96,1.17*07
$GPGSV,4,1,13,02,09,227,32,05,58,289,38,07,35,051,37,08,01,051,*7F
$GPGSV,4,2,13,09,11,101,31,11,12,217,34,13,43,302,37,14,48,141,29*70
$GPGSV,4,3,13,15,13,297,42,18,03,327,32,20,62,224,35,28,33,162,35*70
$GPGSV,4,4,13,30,64,043,41*48
$GPGLL,3912.13852,N,00917.77617,E,092827.00,A,A*64
$GPRMC,092828.00,A,3912.13750,N,00917.77560,E,4.332,202.97,130122,,,A*69
$GPVTG,202.97,T,,M,4.332,N,8.022,K,A*3D
$GPGGA,092828.00,3912.13750,N,00917.77560,E,1,09,0.96,2.8,M,44.9,M,,*55
$GPGSA,A,3,30,20,05,14,13,07,15,09,02,,,,1.52,0.96,1.17*07
$GPGSV,4,1,13,02,09,227,26,05,58,289,36,07,35,051,24,08,01,051,*76
$GPGSV,4,2,13,09,11,101,31,11,12,217,29,13,43,302,39,14,48,141,20*7B
$GPGSV,4,3,13,15,13,297,38,18,03,327,31,20,62,224,38,28,33,162,35*73
$GPGSV,4,4,13,30,64,043,37*49
$GPGLL,3912.13750,N,00917.77560,E,092828.00,A,A*65
$GPRMC,092829.00,A,3912.13642,N,00917.77486,E,4.130,206.00,130122,,,A*69
$GPVTG,206.00,T,,M,4.130,N,7.648,K,A*32
$GPGGA,092829.00,3912.13642,N,00917.77486,E,1,09,0.96,2.9,M,44.9,M,,*5E
$GPGSA,A,3,30,20,05,14,13,07,15,09,02,,,,1.52,0.96,1.17*07
$GPGSV,4,1,13,02,09,227,35,05,58,288,38,07,35,051,31,08,01,051,*7F
$GPGSV,4,2,13,09,11,101,31,11,12,217,33,13,43,302,37,14,48,141,30*7F
$GPGSV,4,3,13,15,13,297,40,18,03,327,35,20,62,224,32,28,33,162,40*70
$GPGSV,4,4,13,30,64,043,39*47
$GPGLL,3912.13642,N,00917.77486,E,092829.00,A,A*6F
$GPRMC,092830.00,A,3912.13545,N,00917.77424,E,4.110,208.85,130122,,,A*6C
$GPVTG,208.85,T,,M,4.110,N,7.611,K,A*3F
$GPGGA,092830.00,3912.13545,N,00917.77424,E,1,09,1.01,2.7,M,44.9,M,,*5B
$GPGSA,A,3,30,20,05,14,13,07,15,09,02,,,,1.55,1.01,1.18*00
$GPGSV,4,1,13,02,09,227,31,05,58,288,41,07,35,051,37,08,01,051,*73
$GPGSV,4,2,13,09,11,101,33,11,12,217,33,13,43,302,37,14,48,141,31*7C
$GPGSV,4,3,13,15,13,297,41,18,03,327,30,20,62,224,35,28,33,162,35*71
$GPGSV,4,4,13,30,64,043,39*47
$GPGLL,3912.13545,N,00917.77424,E,092830.00,A,A*6B
$GPRMC,092831.00,A,3912.13448,N,00917.77361,E,4.062,210.35,130122,,,A*61
$GPVTG,210.35,T,,M,4.062,N,7.524,K,A*3C
$GPGGA,092831.00,3912.13448,N,00917.77361,E,1,09,0.96,2.7,M,44.9,M,,*5F
$GPGSA,A,3,30,20,05,14,13,07,15,09,02,,,,1.52,0.96,1.17*07
$GPGSV,4,1,13,02,09,227,31,05,58,288,35,07,35,051,30,08,01,051,*77
$GPGSV,4,2,13,09,11,101,29,11,12,217,29,13,43,302,43,14,48,141,30*7E
$GPGSV,4,3,13,15,13,297,39,18,03,327,33,20,62,224,35,28,33,162,37*7F
$GPGSV,4,4,13,30,64,043,42*4B
$GPGLL,3912.13448,N,00917.77361,E,092831.00,A,A*60
$GPRMC,092832.00,A,3912.13346,N,00917.77304,E,4.170,205.68,130122,,,A*66
$GPVTG,205.68,T,,M,4.170,N,7.722,K,A*36
$GPGGA,092832.00,3912.13346,N,00917.77304,E,1,09,0.96,2.1,M,44.9,M,,*50
$GPGSA,A,3,30,20,05,14,13,07,15,09,02,,,,1.52,0.96,1.17*07
$GPGSV,4,1,13,02,09,227,35,05,58,288,43,07,35,051,35,08,01,051,*77
$GPGSV,4,2,13,09,11,101,29,11,12,217,33,13,43,302,45,14,48,141,35*76
$GPGSV,4,3,13,15,13,297,39,18,03,327,30,20,62,224,34,28,33,162,34*7E
$GPGSV,4,4,13,30,64,043,45*4C
$GPGLL,3912.13346,N,00917.77304,E,092832.00,A,A*69
$GPRMC,092833.00,A,3912.13248,N,00917.77267,E,4.107,198.90,130122,,,A*6C
$GPVTG,198.90,T,,M,4.107,N,7.607,K,A*30
$GPGGA,092833.00,3912.13248,N,00917.77267,E,1,09,0.96,2.1,M,44.9,M,,*5A
$GPGSA,A,3,30,20,05,14,13,07,15,09,02,,,,1.52,0.96,1.17*07
$GPGSV,4,1,13,02,09,227,38,05,58,288,41,07,35,051,37,08,01,051,*7A
$GPGSV,4,2,13,09,11,102,29,11,12,217,33,13,43,302,39,14,48,141,24*7E
$GPGSV,4,3,13,15,13,297,43,18,03,327,29,20,62,224,33,28,33,162,38*70
$GPGSV,4,4,13,30,64,043,43*4A
$GPGLL,3912.13248,N,00917.77267,E,092833.00,A,A*63
$GPRMC,092834.00,A,3912.13115,N,00917.77235,E,4.149,192.56,130122,,,A*6D
$GPVTG,192.56,T,,M,4.149,N,7.684,K,A*31
$GPGGA,092834.00,3912.13115,N,00917.77235,E,1,09,0.96,2.5,M,44.9,M,,*55
$GPGSA,A,3,30,20,05,14,13,07,15,09,02,,,,1.52,0.96,1.17*07
$GPGSV,4,1,13,02,09,227,36,05,58,288,37,07,35,051,39,08,01,051,*7B
$GPGSV,4,2,13,09,11,102,29,11,12,217,30,13,43,302,42,14,48,141,24*71
$GPGSV,4,3,13,15,13,297,42,18,03,327,29,20,62,224,41,28,33,162,40*7B
$GPGSV,4,4,13,30,64,043,44*4D
$GPGLL,3912.13115,N,00917.77235,E,092834.00,A,A*68
$STALK,
$IIHDM,192,M*36
$IIMWV,211.5,R,0,k,A*01
$IIMWV,211.5,R,6.3,k,A*1A
$IIDBT,,f,10.9,M,,F*29
$STALK,20,01,00,00
$STALK,23,01,10,3c
$STALK,26,04,00,00,00,00,00
$STALK,27,01,05,01
$GPRMC,092835.00,A,3912.13000,N,00917.77209,E,4.041,191.20,130122,,,A*6D
$GPVTG,191.20,T,,M,4.041,N,7.484,K,A*38
$GPGGA,092835.00,3912.13000,N,00917.77209,E,1,09,0.96,2.6,M,44.9,M,,*5D
$GPGSA,A,3,30,20,05,14,13,07,15,09,02,,,,1.52,0.96,1.17*07
$GPGSV,4,1,13,02,09,227,32,05,58,288,34,07,35,051,33,08,01,051,*76
$GPGSV,4,2,13,09,11,102,33,11,11,217,30,13,43,302,27,14,48,141,26*78
$GPGSV,4,3,13,15,13,297,39,18,03,327,26,20,62,224,29,28,33,162,35*74
$GPGSV,4,4,13,30,64,043,40*49
$GPGLL,3912.13000,N,00917.77209,E,092835.00,A,A*63
$STALK,99,00,00
$STALK,84,26,87,1b,00,00,00,00,00
$IIHDM,194,M*30
$IIMWV,252.0,R,6.3,k,A*18
$IIMWV,252.0,R,6.2,k,A*19
$IIDBT,,f,10.9,M,,F*29
$STALK,20,01,00,00
$STALK,23,01,10,3c
$STALK,26,04,00,00,00,00,00
$GPRMC,092836.00,A,3912.12897,N,00917.77182,E,3.644,192.19,130122,,,A*64
$GPVTG,192.19,T,,M,3.644,N,6.749,K,A*36
$GPGGA,092836.00,3912.12897,N,00917.77182,E,1,09,0.96,2.6,M,44.9,M,,*59
$GPGSA,A,3,30,20,05,14,13,07,15,09,02,,,,1.52,0.96,1.17*07
$GPGSV,4,1,13,02,09,227,31,05,58,288,34,07,35,051,30,08,01,051,*76
$GPGSV,4,2,13,09,11,102,32,11,11,217,28,13,43,302,30,14,48,141,26*76
$GPGSV,4,3,13,15,13,297,40,18,03,327,25,20,62,224,30,28,33,162,32*76
$GPGSV,4,4,13,30,64,043,40*49
$GPGLL,3912.12897,N,00917.77182,E,092836.00,A,A*67
$STALK,27,01,05,01
$STALK,84,e6,87,1d,00,00,00,00,00
$IIHDM,198,M*3C
$IIMWV,227.5,R,6.2,k,A*1E
$IIMWV,227.5,R,5.8,k,A*17
$IIDBT,,f,10.9,M,,F*29
$STALK,20,01,00,00
$STALK,23,01,10,3c
$STALK,26,04,00,00,00,00,00
$GPRMC,092837.00,A,3912.12798,N,00917.77144,E,3.953,194.34,130122,,,A*6F
$GPVTG,194.34,T,,M,3.953,N,7.320,K,A*3C
$GPGGA,092837.00,3912.12798,N,00917.77144,E,1,09,0.96,2.7,M,44.9,M,,*53
$GPGSA,A,3,30,20,05,14,13,07,15,09,02,,,,1.52,0.96,1.17*07
$GPGSV,4,1,13,02,09,227,32,05,58,288,25,07,35,051,30,08,01,051,*75
$GPGSV,4,2,13,09,11,102,32,11,11,217,33,13,43,302,38,14,48,141,28*7A
$GPGSV,4,3,13,15,13,297,38,18,03,327,23,20,62,224,33,28,33,162,27*78
$GPGSV,4,4,13,30,64,043,41*48
$GPGLL,3912.12798,N,00917.77144,E,092837.00,A,A*6C
$STALK,27,01,05,01
$STALK,84,a6,89,26,00,00,00,00,00
$IIMWV,174.5,R,5.8,k,A*12
$IIMWV,174.5,R,5.7,k,A*1D
$IIHDM,200,M*3E
$IIDBT,,f,10.9,M,,F*29
$STALK,20,01,00,00
$STALK,23,01,10,3c
$STALK,26,04,00,00,00,00,00
$STALK,27,01,05,01
$GPRMC,092838.00,A,3912.12700,N,00917.77102,E,3.606,195.80,130122,,,A*62
$GPVTG,195.80,T,,M,3.606,N,6.678,K,A*34
$GPGGA,092838.00,3912.12700,N,00917.77102,E,1,09,0.96,2.9,M,44.9,M,,*51
$GPGSA,A,3,30,20,05,14,13,07,15,09,02,,,,1.52,0.96,1.17*07
$GPGSV,4,1,13,02,09,227,31,05,58,288,25,07,35,051,31,08,01,051,*77
$GPGSV,4,2,13,09,11,102,30,11,11,217,30,13,43,302,36,14,48,140,33*7E
$GPGSV,4,3,13,15,13,297,36,18,03,327,19,20,62,224,33,28,33,162,32*7B
$GPGSV,4,4,13,30,64,043,37*49
$GPGLL,3912.12700,N,00917.77102,E,092838.00,A,A*60
$STALK,60,0c,01,00,00,00,00,00,00,00,00,00,00,00,01
$STALK,84,a6,8a,28,00,00,00,00,00
$IIMWV,200.5,R,5.7,k,A*1D
$IIMWV,200.5,R,4.7,k,A*1C
$IIHDM,204,M*3A
$IIDBT,,f,11.0,M,,F*21
$STALK,20,01,00,00
$STALK,23,01,10,3c
$STALK,26,04,00,00,00,00,00
$GPRMC,092839.00,A,3912.12615,N,00917.77066,E,3.655,198.69,130122,,,A*69
$GPVTG,198.69,T,,M,3.655,N,6.769,K,A*39
$GPGGA,092839.00,3912.12615,N,00917.77066,E,1,09,0.96,2.6,M,44.9,M,,*59
$GPGSA,A,3,30,20,05,14,13,07,15,09,02,,,,1.52,0.96,1.17*07
$GPGSV,4,1,13,02,09,227,24,05,58,288,34,07,35,051,35,08,01,051,*77
$GPGSV,4,2,13,09,11,102,29,11,11,217,30,13,43,302,26,14,48,140,16*70
$GPGSV,4,3,13,15,14,297,39,18,03,327,22,20,62,224,38,28,33,162,35*77
$GPGSV,4,4,13,30,64,043,37*49
$GPGLL,3912.12615,N,00917.77066,E,092839.00,A,A*67
$STALK,27,01,05,01
$STALK,84,a6,8c,32,00,00,00,00,00
$IIMWV,167.5,R,4.7,k,A*1E
$IIMWV,167.5,R,5.8,k,A*10
$IIHDM,206,M*38
$IIDBT,,f,10.9,M,,F*29
$STALK,20,01,00,00
$STALK,23,01,10,3c
$STALK,26,04,00,00,00,00,00
$GPRMC,092840.00,A,3912.12518,N,00917.77009,E,3.891,201.62,130122,,,A*6E
$GPVTG,201.62,T,,M,3.891,N,7.206,K,A*3A
$GPGGA,092840.00,3912.12518,N,00917.77009,E,1,09,0.96,2.7,M,44.9,M,,*51
$GPGSA,A,3,30,20,05,14,13,07,15,09,02,,,,1.52,0.96,1.17*07
$GPGSV,4,1,13,02,09,227,25,05,58,288,31,07,35,051,32,08,01,051,*74
$GPGSV,4,2,13,09,11,102,31,11,11,217,30,13,43,302,37,14,48,140,19*76
$GPGSV,4,3,13,15,14,297,33,18,03,327,34,20,62,224,36,28,33,162,36*77
$GPGSV,4,4,13,30,64,043,39*47
$GPGLL,3912.12518,N,00917.77009,E,092840.00,A,A*6E
!AIVDM,1,1,,A,H3P=Aa4TCBD5WcKj7<Ik001@341t,0*0F
$STALK,27,01,05,01
$IIMWV,212.0,R,5.8,k,A*14
$IIMWV,212.0,R,5.1,k,A*1D
$STALK,84,e6,8c,34,00,00,00,00,00
$IIHDM,208,M*36
$IIDBT,,f,12.2,M,,F*20
$STALK,20,01,00,00
$STALK,23,01,10,3c
$STALK,26,04,00,00,00,00,00
$GPRMC,092841.00,A,3912.12417,N,00917.76944,E,4.031,204.08,130122,,,A*6C
$GPVTG,204.08,T,,M,4.031,N,7.465,K,A*35
$GPGGA,092841.00,3912.12417,N,00917.76944,E,1,09,0.96,2.8,M,44.9,M,,*50
$GPGSA,A,3,30,20,05,14,13,07,15,09,02,,,,1.51,0.96,1.17*04
$GPGSV,4,1,13,02,09,227,28,05,58,288,32,07,35,051,25,08,01,051,*7C
$GPGSV,4,2,13,09,11,102,31,11,11,217,20,13,43,302,35,14,48,140,29*76
$GPGSV,4,3,13,15,14,297,37,18,03,327,33,20,62,224,35,28,33,162,33*72
$GPGSV,4,4,13,30,64,043,39*47
$GPGLL,3912.12417,N,00917.76944,E,092841.00,A,A*60
$STALK,27,01,05,01
$IIMWV,173.0,R,5.1,k,A*19
$IIMWV,173.0,R,5.0,k,A*18
$STALK,84,a6,8e,39,00,00,00,00,00
$IIDBT,,f,12.2,M,,F*20
$IIHDM,210,M*3F
$STALK,20,01,00,00
$STALK,23,01,10,3c
$STALK,26,04,00,00,00,00,00
$GPRMC,092842.00,A,3912.12316,N,00917.76880,E,4.120,205.66,130122,,,A*68
$GPVTG,205.66,T,,M,4.120,N,7.631,K,A*3E
$GPGGA,092842.00,3912.12316,N,00917.76880,E,1,09,0.96,2.9,M,44.9,M,,*5D
$GPGSA,A,3,30,20,05,14,13,07,15,09,02,,,,1.51,0.96,1.17*04
$GPGSV,4,1,13,02,09,227,14,05,58,288,33,07,35,051,25,08,01,051,*72
$GPGSV,4,2,13,09,11,102,29,11,11,217,29,13,43,302,33,14,48,140,31*79
$GPGSV,4,3,13,15,14,297,41,18,04,326,26,20,62,224,32,28,33,162,33*76
$GPGSV,4,4,13,30,64,043,37*49
$GPGLL,3912.12316,N,00917.76880,E,092842.00,A,A*6C
$STALK,27,01,05,01
$IIMWV,184.5,R,5.0,k,A*15
$IIMWV,184.5,R,4.9,k,A*1D
$STALK,84,e6,8e,3c,00,00,00,00,00
$IIDBT,,f,11.6,M,,F*27
$STALK,20,01,00,00
$STALK,23,01,10,3c
$IIHDM,210,M*3F
$STALK,24,02,00,00,00
$STALK,26,04,00,00,00,00,00
$STALK,27,01,05,01
$GPRMC,092843.00,A,3912.12227,N,00917.76812,E,3.782,208.20,130122,,,A*67
$GPVTG,208.20,T,,M,3.782,N,7.004,K,A*38
$GPGGA,092843.00,3912.12227,N,00917.76812,E,1,09,0.96,3.0,M,44.9,M,,*5C
$GPGSA,A,3,30,20,05,14,13,07,15,09,02,,,,1.51,0.96,1.17*04
$GPGSV,4,1,13,02,09,227,13,05,58,288,37,07,35,051,32,08,01,051,*77
$GPGSV,4,2,13,09,11,102,29,11,11,217,30,13,43,302,36,14,48,140,29*7D
$GPGSV,4,3,13,15,14,297,43,18,04,326,29,20,62,224,33,28,33,162,30*79
$GPGSV,4,4,13,30,64,043,34*4A
$GPGLL,3912.12227,N,00917.76812,E,092843.00,A,A*65
$STALK,60,0c,01,00,00,00,00,00,00,00,00,00,00,00,01
$IIMWV,184.5,R,4.9,k,A*1D
$IIMWV,184.5,R,5.5,k,A*10
$STALK,84,66,90,40,00,00,00,00,00
$IIDBT,,f,11.6,M,,F*27
$STALK,20,01,00,00
$STALK,23,01,10,3c
$STALK,26,04,00,00,00,00,00
$IIHDM,214,M*3B
$GPRMC,092844.00,A,3912.12147,N,00917.76735,E,3.616,210.58,130122,,,A*65
$GPVTG,210.58,T,,M,3.616,N,6.696,K,A*3E
$GPGGA,092844.00,3912.12147,N,00917.76735,E,1,09,0.96,3.1,M,44.9,M,,*55
$GPGSA,A,3,30,20,05,14,13,07,15,09,02,,,,1.51,0.96,1.17*04
$GPGSV,4,1,13,02,09,227,29,05,58,288,37,07,35,051,32,08,01,051,*7E
$GPGSV,4,2,13,09,11,102,29,11,11,217,22,13,43,302,43,14,48,140,30*74
$GPGSV,4,3,13,15,14,297,42,18,04,326,31,20,61,223,34,28,33,162,36*74
$GPGSV,4,4,13,30,64,043,34*4A
$GPGLL,3912.12147,N,00917.76735,E,092844.00,A,A*6D
$STALK,27,01,05,01
$IIMWV,171.0,R,5.5,k,A*1F
$IIMWV,171.0,R,6.0,k,A*19
$STALK,84,26,90,40,00,00,00,00,00
$IIDBT,,f,11.4,M,,F*25
$STALK,20,01,00,00
$STALK,23,01,10,3c
$STALK,26,04,00,00,00,00,00
$STALK,27,01,05,01
$GPRMC,092845.00,A,3912.12056,N,00917.76665,E,3.867,211.15,130122,,,A*61
$GPVTG,211.15,T,,M,3.867,N,7.162,K,A*33
$GPGGA,092845.00,3912.12056,N,00917.76665,E,1,09,0.96,3.0,M,44.9,M,,*50
$GPGSA,A,3,30,20,05,14,13,07,15,09,02,,,,1.51,0.96,1.17*04
$GPGSV,4,1,13,02,09,227,28,05,58,288,30,07,35,051,35,08,01,051,*7F
$GPGSV,4,2,13,09,11,102,31,11,11,217,29,13,43,302,42,14,48,140,33*74
$GPGSV,4,3,13,15,14,297,38,18,04,326,32,20,61,223,33,28,33,162,37*7C
$GPGSV,4,4,13,30,64,043,37*49
$GPGLL,3912.12056,N,00917.76665,E,092845.00,A,A*69
$IIHDM,212,M*3D
$IIMWV,160.0,R,6.0,k,A*19
$IIMWV,160.0,R,7.0,k,A*18
$STALK,99,00,00
$STALK,84,e6,91,45,00,00,00,00,00
$IIDBT,,f,11.5,M,,F*24
$STALK,20,01,00,00
$STALK,23,01,10,3c
$STALK,26,04,00,00,00,00,00
$STALK,27,01,05,01
$GPRMC,092846.00,A,3912.11963,N,00917.76586,E,4.081,211.93,130122,,,A*69
$GPVTG,211.93,T,,M,4.081,N,7.558,K,A*37
$GPGGA,092846.00,3912.11963,N,00917.76586,E,1,09,0.96,2.9,M,44.9,M,,*59
$GPGSA,A,3,30,20,05,14,13,07,15,09,02,,,,1.51,0.96,1.17*04
$GPGSV,4,1,13,02,09,227,27,05,58,288,34,07,35,051,36,08,01,051,*77
$GPGSV,4,2,13,09,11,102,23,11,11,217,21,13,43,302,44,14,48,140,31*7B
$GPGSV,4,3,13,15,14,297,40,18,04,326,31,20,61,223,32,28,33,162,32*74
$GPGSV,4,4,13,30,64,043,38*46
$GPGLL,3912.11963,N,00917.76586,E,092846.00,A,A*68
$IIHDM,216,M*39
$IIMWV,130.0,R,7.0,k,A*1D
$IIMWV,130.0,R,6.0,k,A*1C
$STALK,84,e6,91,48,00,00,00,00,00
$IIDBT,,f,11.5,M,,F*24
$STALK,20,01,00,00
$STALK,23,01,10,3c
$STALK,26,04,00,00,00,00,00
$STALK,27,01,05,01
$GPRMC,092847.00,A,3912.11877,N,00917.76502,E,3.889,213.41,130122,,,A*6A
$GPVTG,213.41,T,,M,3.889,N,7.203,K,A*34
$GPGGA,092847.00,3912.11877,N,00917.76502,E,1,09,0.96,2.8,M,44.9,M,,*51
$GPGSA,A,3,30,20,05,14,13,07,15,09,02,,,,1.51,0.96,1.17*04
$GPGSV,4,1,13,02,09,227,25,05,58,288,25,07,35,051,34,08,01,051,*77
$GPGSV,4,2,13,09,11,102,20,11,11,217,21,13,43,302,36,14,48,140,34*78
$GPGSV,4,3,13,15,14,297,41,18,04,326,29,20,61,223,33,28,33,162,30*7F
$GPGSV,4,4,13,30,64,043,37*49
$GPGLL,3912.11877,N,00917.76502,E,092847.00,A,A*61
$IIHDM,216,M*39
$IIMWV,184.0,R,6.0,k,A*13
$IIMWV,184.0,R,5.7,k,A*17
$IIDBT,,f,11.2,M,,F*23
$STALK,20,01,00,00
$STALK,84,66,92,49,00,00,00,00,00
$STALK,23,01,10,3c
$STALK,26,04,00,00,00,00,00
$STALK,27,01,05,01
$STALK,60,0c,01,00,00,00,00,00,00,00,00,00,00,00,01
$GPRMC,092848.00,A,3912.11791,N,00917.76422,E,3.752,214.59,130122,,,A*66
$GPVTG,214.59,T,,M,3.752,N,6.949,K,A*37
$GPGGA,092848.00,3912.11791,N,00917.76422,E,1,08,1.09,2.9,M,44.9,M,,*5D
$GPGSA,A,3,30,20,05,14,13,15,09,02,,,,,1.61,1.09,1.18*08
$GPGSV,4,1,13,02,09,227,23,05,58,288,27,07,35,051,18,08,01,051,*7D
$GPGSV,4,2,13,09,11,102,21,11,11,217,22,13,43,302,46,14,48,140,33*7A
$GPGSV,4,3,13,15,14,297,41,18,04,326,31,20,61,223,27,28,33,162,33*70
$GPGSV,4,4,13,30,64,043,35*4B
$GPGLL,3912.11791,N,00917.76422,E,092848.00,A,A*6A
$IIHDM,218,M*37
$IIMWV,145.0,R,5.7,k,A*1A
$IIMWV,145.0,R,6.0,k,A*1E
$IIDBT,,f,11.2,M,,F*23
$STALK,20,01,00,00
$STALK,23,01,10,3c
$STALK,84,26,93,4b,00,00,00,00,00
$STALK,26,04,00,00,00,00,00
$GPRMC,092849.00,A,3912.11704,N,00917.76330,E,3.983,216.59,130122,,,A*6F
$GPVTG,216.59,T,,M,3.983,N,7.376,K,A*30
$GPGGA,092849.00,3912.11704,N,00917.76330,E,1,09,0.96,3.0,M,44.9,M,,*5A
$GPGSA,A,3,30,20,05,14,13,07,15,09,02,,,,1.51,0.96,1.17*04
$GPGSV,4,1,13,02,09,227,25,05,58,288,31,07,35,051,22,08,01,051,*75
$GPGSV,4,2,13,09,11,102,22,11,11,217,23,13,43,302,25,14,48,140,28*77
$GPGSV,4,3,13,15,14,297,42,18,04,326,30,20,61,223,26,28,33,162,25*74
$GPGSV,4,4,13,30,64,043,40*49
$GPGLL,3912.11704,N,00917.76330,E,092849.00,A,A*63
$STALK,27,01,05,01
$IIMWV,167.0,R,6.0,k,A*1E
$IIHDM,218,M*37
$IIMWV,167.0,R,6.8,k,A*16
$IIDBT,,f,11.2,M,,F*23
$STALK,20,01,00,00
$STALK,23,01,10,3c
$STALK,26,04,00,00,00,00,00
$STALK,84,e6,93,4e,00,00,00,00,00
$STALK,27,01,05,01
$GPRMC,092850.00,A,3912.11617,N,00917.76230,E,4.136,218.21,130122,,,A*65
$GPVTG,218.21,T,,M,4.136,N,7.660,K,A*32
$GPGGA,092850.00,3912.11617,N,00917.76230,E,1,09,0.96,3.2,M,44.9,M,,*52
$GPGSA,A,3,30,20,05,14,13,07,15,09,02,,,,1.51,0.96,1.17*04
$GPGSV,4,1,13,02,09,227,24,05,58,288,36,07,35,051,24,08,01,051,*75
$GPGSV,4,2,13,09,11,102,20,11,11,217,25,13,43,302,42,14,48,140,28*72
$GPGSV,4,3,13,15,14,297,42,18,04,326,29,20,61,223,31,28,33,162,23*7C
$GPGSV,4,4,13,30,64,043,38*46
$GPGLL,3912.11617,N,00917.76230,E,092850.00,A,A*69
$IIMWV,192.0,R,6.8,k,A*1C
$IIMWV,192.0,R,6.1,k,A*15
$IIHDM,220,M*3C
$IIDBT,,f,11.2,M,,F*23
$STALK,20,01,00,00
$STALK,23,01,10,3c
$STALK,26,04,00,00,00,00,00
$STALK,27,01,05,01
$STALK,84,66,93,4d,00,00,00,00,00
$IIMWV,162.5,R,6.1,k,A*1F
$GPRMC,092851.00,A,3912.11536,N,00917.76120,E,4.274,218.27,130122,,,A*65
$GPVTG,218.27,T,,M,4.274,N,7.915,K,A*3C
$GPGGA,092851.00,3912.11536,N,00917.76120,E,1,09,0.96,3.5,M,44.9,M,,*56
$GPGSA,A,3,30,20,05,14,13,07,15,09,02,,,,1.51,0.96,1.17*04
$GPGSV,4,1,13,02,09,227,25,05,58,288,36,07,35,051,27,08,01,051,*77
$GPGSV,4,2,13,09,11,102,19,11,11,217,27,13,43,302,43,14,48,140,26*75
$GPGSV,4,3,13,15,14,297,43,18,04,326,32,20,61,223,26,28,33,162,22*70
$GPGSV,4,4,13,30,64,043,37*49
$GPGLL,3912.11536,N,00917.76120,E,092851.00,A,A*6A
$IIMWV,162.5,R,5.7,k,A*1A
$IIHDM,218,M*37
$IIDBT,,f,10.9,M,,F*29
$STALK,20,01,00,00
$STALK,23,01,10,3c
$STALK,26,04,00,00,00,00,00
$STALK,27,01,05,01
$STALK,84,66,93,4c,00,00,00,00,00
$IIMWV,144.0,R,5.7,k,A*1B
$GPRMC,092852.00,A,3912.11452,N,00917.76014,E,4.203,219.07,130122,,,A*60
$GPVTG,219.07,T,,M,4.203,N,7.784,K,A*39
$GPGGA,092852.00,3912.11452,N,00917.76014,E,1,09,0.96,3.7,M,44.9,M,,*52
$GPGSA,A,3,30,20,05,14,13,07,15,09,02,,,,1.51,0.96,1.17*04
$GPGSV,4,1,13,02,09,227,25,05,58,288,27,07,35,051,28,08,01,051,*78
$GPGSV,4,2,13,09,11,102,20,11,11,217,27,13,43,302,39,14,48,140,31*74
$GPGSV,4,3,13,15,14,297,42,18,04,326,27,20,61,223,28,28,34,162,25*7B
$GPGSV,4,4,13,30,64,043,37*49
$GPGLL,3912.11452,N,00917.76014,E,092852.00,A,A*6C
$IIMWV,144.0,R,5.9,k,A*15
$IIHDM,220,M*3C
$IIDBT,,f,10.9,M,,F*29
$STALK,20,01,00,00
$STALK,23,01,10,3c
$STALK,26,04,00,00,00,00,00
$STALK,27,01,05,01
$STALK,60,0c,01,00,00,00,00,00,00,00,00,00,00,00,01
$IIMWV,143.5,R,5.9,k,A*17
$IIMWV,143.5,R,5.4,k,A*1A
$GPRMC,092853.00,A,3912.11373,N,00917.75914,E,4.093,219.56,130122,,,A*60
$GPVTG,219.56,T,,M,4.093,N,7.580,K,A*30
$GPGGA,092853.00,3912.11373,N,00917.75914,E,1,09,0.96,3.9,M,44.9,M,,*53
$GPGSA,A,3,30,20,05,14,13,07,15,09,02,,,,1.51,0.96,1.17*04
$GPGSV,4,1,13,02,09,227,26,05,58,288,36,07,35,051,27,08,01,051,*74
$GPGSV,4,2,13,09,11,102,20,11,11,217,27,13,43,302,43,14,48,140,32*7A
$GPGSV,4,3,13,15,14,297,42,18,04,326,27,20,61,223,28,28,34,162,24*7A
$GPGSV,4,4,13,30,64,043,35*4B
$GPGLL,3912.11373,N,00917.75914,E,092853.00,A,A*63
$STALK,84,e6,92,4c,00,00,00,00,00
$IIHDM,218,M*37
$IIDBT,,f,12.8,M,,F*2A
$STALK,20,01,00,00
$STALK,23,01,10,3c
$STALK,26,04,00,00,00,00,00
$STALK,27,01,05,01
$IIMWV,159.0,R,5.4,k,A*14
$GPRMC,092854.00,A,3912.11289,N,00917.75821,E,4.038,218.71,130122,,,A*61
$GPVTG,218.71,T,,M,4.038,N,7.478,K,A*33
$GPGGA,092854.00,3912.11289,N,00917.75821,E,1,09,0.96,3.9,M,44.9,M,,*57
$GPGSA,A,3,30,20,05,14,13,07,15,09,02,,,,1.51,0.96,1.17*04
$GPGSV,4,1,13,02,09,227,27,05,58,288,37,07,35,051,27,08,01,051,*74
$GPGSV,4,2,13,09,11,102,20,11,11,217,27,13,43,302,44,14,48,140,32*7D
$GPGSV,4,3,13,15,14,297,42,18,04,326,27,20,61,223,27,28,34,162,30*70
$GPGSV,4,4,13,30,64,043,38*46
$GPGLL,3912.11289,N,00917.75821,E,092854.00,A,A*67
$IIMWV,159.0,R,5.8,k,A*18
$STALK,84,66,92,49,00,00,00,00,00
$IIHDM,218,M*37
$IIDBT,,f,12.8,M,,F*2A
$STALK,20,01,00,00
$STALK,23,01,10,3c
$STALK,26,04,00,00,00,00,00
$IIMWV,114.5,R,5.8,k,A*14
$STALK,27,01,05,01
$GPRMC,092855.00,A,3912.11198,N,00917.75720,E,4.027,218.66,130122,,,A*65
$GPVTG,218.66,T,,M,4.027,N,7.459,K,A*38
$GPGGA,092855.00,3912.11198,N,00917.75720,E,1,09,0.96,4.2,M,44.9,M,,*57
$GPGSA,A,3,30,20,05,14,13,07,15,09,02,,,,1.51,0.96,1.17*04
$GPGSV,4,1,13,02,09,227,27,05,58,288,32,07,35,051,27,08,01,051,*71
$GPGSV,4,2,13,09,11,102,21,11,11,217,26,13,43,302,37,14,48,140,32*79
$GPGSV,4,3,13,15,14,297,41,18,04,326,28,20,61,223,28,28,34,162,31*72
$GPGSV,4,4,13,30,64,043,38*46
$GPGLL,3912.11198,N,00917.75720,E,092855.00,A,A*6B
$IIMWV,114.5,R,6.1,k,A*1E
$STALK,84,66,92,49,00,00,00,00,00
$IIHDM,218,M*37
$IIDBT,,f,12.8,M,,F*2A
$STALK,20,01,00,00
$STALK,23,01,10,3c
$IIMWV,148.5,R,6.1,k,A*17
$IIMWV,148.5,R,6.2,k,A*14
$STALK,26,04,00,00,00,00,00
$STALK,99,00,00
$GPRMC,092856.00,A,3912.11123,N,00917.75648,E,3.885,217.08,130122,,,A*69
$GPVTG,217.08,T,,M,3.885,N,7.194,K,A*3C
$GPGGA,092856.00,3912.11123,N,00917.75648,E,1,09,0.96,3.6,M,44.9,M,,*58
$GPGSA,A,3,30,20,05,14,13,07,15,09,02,,,,1.51,0.96,1.17*04
$GPGSV,4,1,13,02,09,227,28,05,58,288,38,07,35,051,35,08,01,051,*77
$GPGSV,4,2,13,09,11,102,20,11,11,217,25,13,43,302,44,14,48,140,27*7B
$GPGSV,4,3,13,15,14,297,42,18,04,326,27,20,61,223,18,28,34,162,30*7C
$GPGSV,4,4,13,30,64,043,36*48
$GPGLL,3912.11123,N,00917.75648,E,092856.00,A,A*67
$STALK,27,01,05,01
$STALK,84,a6,92,4a,00,00,00,00,00
$IIHDM,218,M*37
$IIDBT,,f,12.5,M,,F*27
$STALK,20,01,00,00
$STALK,23,01,10,3c
$IIMWV,133.5,R,6.2,k,A*18
$IIMWV,133.5,R,7.1,k,A*1A
$STALK,26,04,00,00,00,00,00
$GPRMC,092857.00,A,3912.11028,N,00917.75548,E,4.323,215.97,130122,,,A*65
$GPVTG,215.97,T,,M,4.323,N,8.006,K,A*3D
$GPGGA,092857.00,3912.11028,N,00917.75548,E,1,09,0.96,3.9,M,44.9,M,,*5F
$GPGSA,A,3,30,20,05,14,13,07,15,09,02,,,,1.51,0.96,1.17*04
$GPGSV,4,1,13,02,09,227,28,05,58,288,32,07,35,051,30,08,01,051,*78
$GPGSV,4,2,13,09,11,102,20,11,11,217,25,13,43,302,42,14,48,140,32*79
$GPGSV,4,3,13,15,14,297,43,18,04,326,29,20,61,223,33,28,34,162,31*7B
$GPGSV,4,4,13,30,64,043,35*4B
$GPGLL,3912.11028,N,00917.75548,E,092857.00,A,A*6F
$STALK,27,01,05,01
$STALK,84,26,92,48,00,00,00,00,00
$IIHDM,216,M*39
$IIDBT,,f,12.4,M,,F*26
$STALK,20,01,00,00
$IIMWV,142.0,R,7.1,k,A*19
$IIMWV,142.0,R,7.4,k,A*1C
$STALK,23,01,10,3c
$STALK,26,04,00,00,00,00,00
$STALK,27,01,05,01
$GPRMC,092858.00,A,3912.10927,N,00917.75454,E,4.483,214.65,130122,,,A*60
$GPVTG,214.65,T,,M,4.483,N,8.302,K,A*3B
$GPGGA,092858.00,3912.10927,N,00917.75454,E,1,09,0.96,3.9,M,44.9,M,,*5B
$GPGSA,A,3,30,20,05,14,13,07,15,09,02,,,,1.51,0.96,1.17*04
$GPGSV,4,1,13,02,09,227,25,05,58,288,35,07,35,051,34,08,01,051,*76
$GPGSV,4,2,13,09,11,102,21,11,11,217,22,13,43,302,43,14,48,140,35*79
$GPGSV,4,3,13,15,14,297,42,18,04,326,29,20,61,223,29,28,34,162,31*71
$GPGSV,4,4,13,30,64,043,39*47
$GPGLL,3912.10927,N,00917.75454,E,092858.00,A,A*6B
$STALK,60,0c,01,00,00,00,00,00,00,00,00,00,00,00,01
$STALK,84,a6,91,44,00,00,00,00,00
$IIHDM,216,M*39
$IIMWV,145.5,R,7.4,k,A*1E
$IIMWV,145.5,R,7.2,k,A*18
$IIDBT,,f,12.3,M,,F*21
$STALK,20,01,00,00
$STALK,23,01,10,3c
$STALK,26,04,00,00,00,00,00
$GPRMC,092859.00,A,3912.10825,N,00917.75347,E,4.326,214.53,130122,,,A*6A
$GPVTG,214.53,T,,M,4.326,N,8.012,K,A*34
$GPGGA,092859.00,3912.10825,N,00917.75347,E,1,09,0.96,4.4,M,44.9,M,,*56
$GPGSA,A,3,30,20,05,14,13,07,15,09,02,,,,1.51,0.96,1.17*04
$GPGSV,4,1,13,02,09,227,24,05,58,288,28,07,35,051,29,08,01,051,*77
$GPGSV,4,2,13,09,11,102,23,11,11,217,20,13,43,302,43,14,48,140,27*7A
$GPGSV,4,3,13,15,14,297,39,18,04,326,33,20,61,223,22,28,34,162,32*7E
$GPGSV,4,4,13,30,64,043,37*49
$GPGLL,3912.10825,N,00917.75347,E,092859.00,A,A*6C
$STALK,27,01,05,01
$STALK,84,e6,91,48,00,00,00,00,00
$IIHDM,216,M*39
$IIMWV,122.5,R,7.2,k,A*19
$IIMWV,122.5,R,7.4,k,A*1F
$IIDBT,,f,12.5,M,,F*27
$STALK,20,01,00,00
$STALK,23,01,10,3c
$STALK,26,04,00,00,00,00,00
$GPRMC,092900.00,A,3912.10735,N,00917.75256,E,4.465,215.84,130122,,,A*63
$GPVTG,215.84,T,,M,4.465,N,8.270,K,A*39
$GPGGA,092900.00,3912.10735,N,00917.75256,E,1,09,0.96,4.3,M,44.9,M,,*53
$GPGSA,A,3,30,20,05,14,13,07,15,09,02,,,,1.51,0.96,1.17*04
$GPGSV,4,1,13,02,09,227,23,05,58,288,35,07,35,051,37,08,01,051,*73
$GPGSV,4,2,13,09,11,102,23,11,11,217,20,13,43,302,46,14,48,140,33*7A
$GPGSV,4,3,13,15,14,297,43,18,04,326,30,20,61,223,29,28,34,162,28*70
$GPGSV,4,4,13,30,64,043,38*46
$GPGLL,3912.10735,N,00917.75256,E,092900.00,A,A*6E
$STALK,27,01,05,01
$STALK,84,e6,91,47,00,00,00,00,00
$IIHDM,216,M*39
$IIMWV,157.5,R,7.4,k,A*1D
$IIMWV,157.5,R,6.9,k,A*11
$IIDBT,,f,12.6,M,,F*24
$STALK,20,01,00,00
$STALK,23,01,10,3c
$STALK,26,04,00,00,00,00,00
$GPRMC,092901.00,A,3912.10645,N,00917.75155,E,4.282,217.54,130122,,,A*64
$GPVTG,217.54,T,,M,4.282,N,7.930,K,A*39
$GPGGA,092901.00,3912.10645,N,00917.75155,E,1,09,0.96,4.5,M,44.9,M,,*52
$GPGSA,A,3,30,20,05,14,13,07,15,09,02,,,,1.51,0.96,1.17*04
$GPGSV,4,1,13,02,09,227,24,05,58,288,25,07,35,051,33,08,01,051,*71
$GPGSV,4,2,13,09,11,102,23,11,11,217,22,13,43,302,45,14,48,140,32*7A
$GPGSV,4,3,13,15,14,297,42,18,04,326,30,20,61,223,22,28,34,162,30*73
$GPGSV,4,4,13,30,64,043,36*48
$GPGLL,3912.10645,N,00917.75155,E,092901.00,A,A*69
$STALK,27,01,05,01
$STALK,84,e6,91,48,00,00,00,00,00
$IIMWV,147.0,R,6.9,k,A*15
$IIMWV,147.0,R,6.4,k,A*18
$IIHDM,216,M*39
$IIDBT,,f,12.6,M,,F*24
$STALK,20,01,00,00
$STALK,23,01,10,3c
$STALK,26,04,00,00,00,00,00
$GPRMC,092902.00,A,3912.10545,N,00917.75068,E,4.289,216.04,130122,,,A*64
$GPVTG,216.04,T,,M,4.289,N,7.944,K,A*35
$GPGGA,092902.00,3912.10545,N,00917.75068,E,1,09,0.96,4.4,M,44.9,M,,*5C
$GPGSA,A,3,30,20,05,14,13,07,15,09,02,,,,1.51,0.96,1.17*04
$GPGSV,4,1,13,02,09,227,22,05,58,288,36,07,35,051,33,08,01,051,*75
$GPGSV,4,2,13,09,11,102,24,11,11,217,20,13,43,302,30,14,48,140,32*7D
$GPGSV,4,3,13,15,14,297,39,18,04,326,32,20,61,223,31,28,34,162,34*7B
$GPGSV,4,4,13,30,64,043,35*4B
$GPGLL,3912.10545,N,00917.75068,E,092902.00,A,A*66
$STALK,27,01,05,01
$STALK,84,a6,91,46,00,00,00,00,00
$IIMWV,143.0,R,6.4,k,A*1C
$IIMWV,143.0,R,6.5,k,A*1D
$IIHDM,216,M*39
$IIDBT,,f,12.6,M,,F*24
$STALK,20,01,00,00
$STALK,23,01,10,3c
$STALK,26,04,00,00,00,00,00
$STALK,27,01,05,01
$GPRMC,092903.00,A,3912.10445,N,00917.74965,E,4.423,218.33,130122,,,A*6D
$GPVTG,218.33,T,,M,4.423,N,8.191,K,A*36
$GPGGA,092903.00,3912.10445,N,00917.74965,E,1,09,0.96,4.8,M,44.9,M,,*55
$GPGSA,A,3,30,20,05,14,13,07,15,09,02,,,,1.51,0.96,1.17*04
$GPGSV,4,1,13,02,09,227,23,05,58,288,39,07,35,051,34,08,01,051,*7C
$GPGSV,4,2,13,09,11,102,26,11,11,217,19,13,43,302,46,14,48,140,32*74
$GPGSV,4,3,13,15,14,297,41,18,04,326,32,20,61,223,31,28,34,162,30*70
$GPGSV,4,4,13,30,64,043,36*48
$GPGLL,3912.10445,N,00917.74965,E,092903.00,A,A*63
$STALK,60,0c,01,00,00,00,00,00,00,00,00,00,00,00,01
$STALK,84,a6,92,4a,00,00,00,00,00
$IIMWV,144.5,R,6.5,k,A*1F
$IIMWV,144.5,R,6.0,k,A*1A
$IIHDM,216,M*39
$IIDBT,,f,12.7,M,,F*25
$STALK,20,01,00,00
$STALK,23,01,10,3c
$STALK,26,04,00,00,00,00,00
$GPRMC,092904.00,A,3912.10355,N,00917.74862,E,4.669,217.90,130122,,,A*60
$GPVTG,217.90,T,,M,4.669,N,8.646,K,A*31
$GPGGA,092904.00,3912.10355,N,00917.74862,E,1,09,0.96,5.0,M,44.9,M,,*5B
$GPGSA,A,3,30,20,05,14,13,07,15,09,02,,,,1.51,0.96,1.17*04
$GPGSV,4,1,13,02,09,227,23,05,58,288,39,07,35,051,36,08,01,051,*7E
$GPGSV,4,2,13,09,11,102,24,11,11,217,21,13,43,302,40,14,48,140,33*7A
$GPGSV,4,3,13,15,14,297,43,18,04,326,28,20,61,223,35,28,34,162,30*7D
$GPGSV,4,4,13,30,64,043,38*46
$GPGLL,3912.10355,N,00917.74862,E,092904.00,A,A*64
$STALK,27,01,05,01
$IIMWV,186.5,R,6.0,k,A*14
$IIMWV,186.5,R,5.4,k,A*13
$STALK,84,e6,90,44,00,00,00,00,00
$IIDBT,,f,12.2,M,,F*20
$STALK,20,01,00,00
$STALK,23,01,10,3c
$IIHDM,214,M*3B
$STALK,26,04,00,00,00,00,00
$GPRMC,092905.00,A,3912.10250,N,00917.74777,E,4.592,214.61,130122,,,A*64
$GPVTG,214.61,T,,M,4.592,N,8.505,K,A*3F
$GPGGA,092905.00,3912.10250,N,00917.74777,E,1,09,0.96,4.7,M,44.9,M,,*53
$GPGSA,A,3,30,20,05,14,13,07,15,09,02,,,,1.51,0.96,1.17*04
$GPGSV,4,1,13,02,09,227,23,05,58,288,35,07,35,051,37,08,01,051,*73
$GPGSV,4,2,13,09,11,102,25,11,11,217,22,13,43,302,43,14,48,140,31*79
$GPGSV,4,3,13,15,14,297,39,18,04,326,28,20,61,223,31,28,34,162,35*71
$GPGSV,4,4,13,30,64,043,34*4A
$GPGLL,3912.10250,N,00917.74777,E,092905.00,A,A*6A
$STALK,27,01,05,01
$IIMWV,139.5,R,5.4,k,A*17
$IIMWV,139.5,R,5.1,k,A*12
$STALK,84,26,92,47,00,00,00,00,00
$IIDBT,,f,11.6,M,,F*27
$STALK,20,01,00,00
$STALK,23,01,10,3c
$STALK,26,04,00,00,00,00,00
$IIHDM,216,M*39
$GPRMC,092906.00,A,3912.10145,N,00917.74687,E,4.458,215.88,130122,,,A*6F
$GPVTG,215.88,T,,M,4.458,N,8.257,K,A*3E
$GPGGA,092906.00,3912.10145,N,00917.74687,E,1,09,0.96,4.8,M,44.9,M,,*56
$GPGSA,A,3,30,20,05,14,13,07,15,09,02,,,,1.51,0.96,1.17*04
$GPGSV,4,1,13,02,09,227,21,05,58,288,29,07,35,051,36,08,01,051,*7D
$GPGSV,4,2,13,09,11,102,26,11,11,217,19,13,43,302,28,14,48,140,32*7C
$GPGSV,4,3,13,15,14,297,43,18,04,326,33,20,61,223,31,28,34,162,29*7B
$GPGSV,4,4,13,30,64,043,36*48
$GPGLL,3912.10145,N,00917.74687,E,092906.00,A,A*60
$STALK,27,01,05,01
$STALK,99,00,00
$IIMWV,143.5,R,5.1,k,A*1F
$IIMWV,143.5,R,5.4,k,A*1A
$STALK,84,66,91,46,00,00,00,00,00
$IIDBT,,f,11.6,M,,F*27
$STALK,20,01,00,00
$STALK,23,01,10,3c
$STALK,26,04,00,00,00,00,00
$STALK,27,01,05,01
$GPRMC,092907.00,A,3912.10042,N,00917.74592,E,4.499,217.06,130122,,,A*66
$GPVTG,217.06,T,,M,4.499,N,8.332,K,A*35
$GPGGA,092907.00,3912.10042,N,00917.74592,E,1,09,0.96,4.6,M,44.9,M,,*58
$GPGSA,A,3,30,20,05,14,13,07,15,09,02,,,,1.51,0.96,1.17*04
$GPGSV,4,1,13,02,09,227,21,05,58,288,29,07,35,051,37,08,01,051,*7C
$GPGSV,4,2,13,09,11,102,23,11,11,217,19,13,43,302,35,14,48,140,31*76
$GPGSV,4,3,13,15,14,297,42,18,04,326,29,20,61,223,31,28,34,162,31*78
$GPGSV,4,4,13,30,64,043,39*47
$GPGLL,3912.10042,N,00917.74592,E,092907.00,A,A*60
$IIHDM,216,M*39
$IIMWV,146.0,R,5.4,k,A*1A
$IIMWV,146.0,R,4.7,k,A*18
$STALK,84,e6,91,47,00,00,00,00,00
$IIDBT,,f,11.1,M,,F*20
$STALK,20,01,00,00
$STALK,23,01,10,3c
$STALK,26,04,00,00,00,00,00
$STALK,27,01,05,01
$STALK,60,0c,01,00,00,00,00,00,00,00,00,00,00,00,01
$GPRMC,092908.00,A,3912.09947,N,00917.74499,E,4.404,215.62,130122,,,A*63
$GPVTG,215.62,T,,M,4.404,N,8.157,K,A*30
$GPGGA,092908.00,3912.09947,N,00917.74499,E,1,09,0.96,4.5,M,44.9,M,,*5A
$GPGSA,A,3,30,20,05,14,13,07,15,09,02,,,,1.51,0.96,1.17*04
$GPGSV,4,1,13,02,09,227,21,05,58,288,27,07,35,051,34,08,01,051,*71
$GPGSV,4,2,13,09,11,102,30,11,11,217,18,13,43,302,42,14,48,140,33*77
$GPGSV,4,3,13,15,14,297,41,18,04,326,29,20,61,223,26,28,34,162,32*7E
$GPGSV,4,4,13,30,64,043,37*49
$GPGLL,3912.09947,N,00917.74499,E,092908.00,A,A*61
$IIHDM,216,M*39
$IIMWV,143.5,R,4.7,k,A*18
$IIMWV,143.5,R,5.1,k,A*1F
$STALK,84,e6,90,44,00,00,00,00,00
$IIDBT,,f,11.1,M,,F*20
$STALK,20,01,00,00
$STALK,23,01,10,3c
$STALK,26,04,00,00,00,00,00
$STALK,27,01,05,01
$GPRMC,092909.00,A,3912.09848,N,00917.74399,E,4.586,214.43,130122,,,A*62
$GPVTG,214.43,T,,M,4.586,N,8.494,K,A*33
$GPGGA,092909.00,3912.09848,N,00917.74399,E,1,09,0.96,4.4,M,44.9,M,,*53
$GPGSA,A,3,30,20,05,14,13,07,15,09,02,,,,1.51,0.96,1.17*04
$GPGSV,4,1,13,02,09,227,21,05,58,288,28,07,35,051,37,08,01,051,*7D
$GPGSV,4,2,13,09,11,102,29,11,11,217,18,13,43,302,41,14,48,140,32*7D
$GPGSV,4,3,13,15,14,297,41,18,04,326,33,20,61,223,27,28,34,162,32*74
$GPGSV,4,4,13,30,64,043,41*48
$GPGLL,3912.09848,N,00917.74399,E,092909.00,A,A*69
$IIHDM,214,M*3B
$IIMWV,128.0,R,5.1,k,A*17
$IIMWV,128.0,R,4.8,k,A*1F
$IIDBT,,f,10.9,M,,F*29
$STALK,84,a6,91,45,00,00,00,00,00
$STALK,20,01,00,00
$STALK,23,01,10,3c
$STALK,26,04,00,00,00,00,00
$STALK,27,01,05,01
$GPRMC,092910.00,A,3912.09746,N,00917.74311,E,4.492,215.57,130122,,,A*6B
$GPVTG,215.57,T,,M,4.492,N,8.320,K,A*3B
$GPGGA,092910.00,3912.09746,N,00917.74311,E,1,09,0.96,4.3,M,44.9,M,,*5D
$GPGSA,A,3,30,20,05,14,13,07,15,09,02,,,,1.51,0.96,1.17*04
$GPGSV,4,1,13,02,08,227,25,05,58,288,37,07,35,051,35,08,01,051,*74
$GPGSV,4,2,13,09,11,102,30,11,11,217,18,13,43,302,44,14,48,140,31*73
$GPGSV,4,3,13,15,14,297,42,18,04,326,32,20,61,223,27,28,34,162,35*71
$GPGSV,4,4,13,30,64,043,35*4B
$GPGLL,3912.09746,N,00917.74311,E,092910.00,A,A*60
$IIHDM,216,M*39
$IIMWV,122.0,R,4.8,k,A*15
$IIMWV,122.0,R,5.7,k,A*1B
$IIDBT,,f,10.9,M,,F*29
$STALK,20,01,00,00
$STALK,23,01,10,3c
$STALK,84,26,91,45,00,00,00,00,00
$STALK,26,04,00,00,00,00,00
$GPRMC,092911.00,A,3912.09643,N,00917.74215,E,4.576,216.07,130122,,,A*66
$GPVTG,216.07,T,,M,4.576,N,8.475,K,A*31
$GPGGA,092911.00,3912.09643,N,00917.74215,E,1,09,0.96,4.0,M,44.9,M,,*5E
$GPGSA,A,3,30,20,05,14,13,07,15,09,02,,,,1.51,0.96,1.17*04
$GPGSV,4,1,13,02,08,227,22,05,58,288,33,07,35,051,38,08,01,051,*7A
$GPGSV,4,2,13,09,11,102,28,11,11,217,18,13,43,302,39,14,48,140,32*73
$GPGSV,4,3,13,15,14,297,40,18,04,326,26,20,61,223,32,28,34,162,31*76
$GPGSV,4,4,13,30,64,043,40*49
$GPGLL,3912.09643,N,00917.74215,E,092911.00,A,A*60
$STALK,27,01,05,01
$IIHDM,214,M*3B
$IIMWV,148.0,R,5.7,k,A*17
$IIMWV,148.0,R,5.7,k,A*17
$IIDBT,,f,10.9,M,,F*29
$STALK,20,01,00,00
$STALK,23,01,10,3c
$STALK,26,04,00,00,00,00,00
$STALK,84,66,91,45,00,00,00,00,00
$GPRMC,092912.00,A,3912.09536,N,00917.74125,E,4.698,213.64,130122,,,A*67
$GPVTG,213.64,T,,M,4.698,N,8.701,K,A*32
$GPGGA,092912.00,3912.09536,N,00917.74125,E,1,08,1.20,3.8,M,44.9,M,,*5E
$GPGSA,A,3,30,20,05,14,13,07,15,09,,,,,1.84,1.20,1.40*00
$GPGSV,4,1,13,02,08,227,,05,58,288,29,07,35,051,36,08,01,051,*7F
$GPGSV,4,2,13,09,11,102,27,11,11,217,20,13,43,302,43,14,48,140,34*7C
$GPGSV,4,3,13,15,14,297,40,18,04,326,33,20,61,223,34,28,34,162,31*74
$GPGSV,4,4,13,30,64,043,38*46
$GPGLL,3912.09536,N,00917.74125,E,092912.00,A,A*62
$STALK,27,01,05,01
$IIHDM,216,M*39
$IIMWV,115.0,R,5.7,k,A*1F
$IIMWV,115.0,R,5.8,k,A*10
$IIDBT,,f,11.0,M,,F*21
$STALK,20,01,00,00
$STALK,23,01,10,3c
$STALK,26,04,00,00,00,00,00
$STALK,27,01,05,01
$STALK,60,0c,01,00,00,00,00,00,00,00,00,00,00,00,01
$GPRMC,092913.00,A,3912.09427,N,00917.74035,E,4.860,212.85,130122,,,A*60
$GPVTG,212.85,T,,M,4.860,N,9.000,K,A*32
$GPGGA,092913.00,3912.09427,N,00917.74035,E,1,08,1.20,3.7,M,44.9,M,,*51
$GPGSA,A,3,30,20,05,14,13,07,15,09,,,,,1.84,1.20,1.40*00
$GPGSV,4,1,13,02,08,227,27,05,58,288,33,07,35,051,36,08,01,051,*71
$GPGSV,4,2,13,09,11,102,27,11,11,217,22,13,43,302,32,14,48,140,33*7F
$GPGSV,4,3,13,15,14,297,42,18,04,326,30,20,61,223,37,28,34,162,35*72
$GPGSV,4,4,13,30,64,043,35*4B
$GPGLL,3912.09427,N,00917.74035,E,092913.00,A,A*62
$STALK,84,e6,90,43,00,00,00,00,00
$IIMWV,176.5,R,5.8,k,A*10
$IIHDM,214,M*3B
!AIVDM,1,1,,A,B3P=Aa0008:aIpUVtK7Q3wVQnDQb,0*70
$IIMWV,176.5,R,5.7,k,A*1F
$IIDBT,,f,11.0,M,,F*21
$STALK,20,01,00,00
$STALK,23,01,10,3c
$STALK,26,04,00,00,00,00,00
$STALK,27,01,05,01
$GPRMC,092914.00,A,3912.09325,N,00917.73953,E,4.687,213.17,130122,,,A*61
$GPVTG,213.17,T,,M,4.687,N,8.680,K,A*30
$GPGGA,092914.00,3912.09325,N,00917.73953,E,1,09,0.96,3.5,M,44.9,M,,*52
$GPGSA,A,3,30,20,05,14,13,07,15,09,02,,,,1.51,0.96,1.17*04
$GPGSV,4,1,13,02,08,227,25,05,58,288,38,07,35,051,31,08,01,051,*7F
$GPGSV,4,2,13,09,11,102,34,11,11,217,24,13,43,302,44,14,48,140,27*7F
$GPGSV,4,3,13,15,14,297,41,18,04,326,34,20,61,223,24,28,34,162,34*76
$GPGSV,4,4,13,30,64,043,35*4B
$GPGLL,3912.09325,N,00917.73953,E,092914.00,A,A*6E
$STALK,84,e6,90,43,00,00,00,00,00
$IIMWV,125.5,R,5.7,k,A*19
$IIMWV,125.5,R,6.3,k,A*1E
$IIHDM,214,M*3B
$IIDBT,,f,11.4,M,,F*25
$STALK,20,01,00,00
$STALK,23,01,10,3c
$STALK,26,04,00,00,00,00,00
$STALK,27,01,05,01
$STALK,84,26,91,44,00,00,00,00,00
$GPRMC,092915.00,A,3912.09218,N,00917.73858,E,4.617,214.93,130122,,,A*67
$GPVTG,214.93,T,,M,4.617,N,8.551,K,A*3D
$GPGGA,092915.00,3912.09218,N,00917.73858,E,1,09,0.96,3.4,M,44.9,M,,*57
$GPGSA,A,3,30,20,05,14,13,07,15,09,02,,,,1.51,0.96,1.17*04
$GPGSV,4,1,13,02,08,227,25,05,58,288,36,07,35,051,35,08,01,051,*75
$GPGSV,4,2,13,09,11,102,23,11,11,217,24,13,43,302,36,14,48,140,33*79
$GPGSV,4,3,13,15,14,297,43,18,04,326,30,20,61,223,24,28,34,162,32*76
$GPGSV,4,4,13,30,64,043,38*46
$GPGLL,3912.09218,N,00917.73858,E,092915.00,A,A*6A
$IIMWV,118.0,R,6.3,k,A*15
$IIMWV,118.0,R,5.9,k,A*1C
$IIHDM,214,M*3B
$IIDBT,,f,11.4,M,,F*25
$STALK,20,01,00,00
$STALK,23,01,10,3c
$STALK,26,04,00,00,00,00,00
$STALK,27,01,05,01
$IIMWV,170.0,R,5.9,k,A*12
$GPRMC,092916.00,A,3912.09115,N,00917.73773,E,4.400,215.03,130122,,,A*60
$GPVTG,215.03,T,,M,4.400,N,8.149,K,A*3C
$GPGGA,092916.00,3912.09115,N,00917.73773,E,1,09,0.96,3.1,M,44.9,M,,*59
$GPGSA,A,3,30,20,05,14,13,07,15,09,02,,,,1.51,0.96,1.17*04
$GPGSV,4,1,13,02,08,227,23,05,58,288,30,07,35,051,36,08,01,050,*77
$GPGSV,4,2,13,09,11,102,30,11,11,217,22,13,43,302,40,14,48,140,31*7E
$GPGSV,4,3,13,15,14,297,40,18,04,326,30,20,61,223,25,28,34,162,32*74
$GPGSV,4,4,13,30,64,043,38*46
$GPGLL,3912.09115,N,00917.73773,E,092916.00,A,A*61
$STALK,84,66,91,45,00,00,00,00,00
$IIMWV,170.0,R,5.9,k,A*12
$IIHDM,216,M*39
$IIDBT,,f,11.5,M,,F*24
$STALK,20,01,00,00
$STALK,23,01,10,3c
$STALK,99,00,00
$STALK,26,04,00,00,00,00,00
$STALK,27,01,05,01
$IIMWV,130.0,R,5.9,k,A*16
$GPRMC,092917.00,A,3912.09016,N,00917.73684,E,4.540,214.57,130122,,,A*6F
$GPVTG,214.57,T,,M,4.540,N,8.407,K,A*36
$GPGGA,092917.00,3912.09016,N,00917.73684,E,1,09,0.96,2.8,M,44.9,M,,*5B
$GPGSA,A,3,30,20,05,14,13,07,15,09,02,,,,1.51,0.96,1.17*04
$GPGSV,4,1,13,02,08,227,22,05,58,288,25,07,35,051,36,08,01,050,*72
$GPGSV,4,2,13,09,11,102,21,11,11,217,20,13,43,302,43,14,48,140,32*7C
$GPGSV,4,3,13,15,14,297,40,18,04,326,28,20,61,223,26,28,34,162,31*7D
$GPGSV,4,4,13,30,64,043,38*46
$GPGLL,3912.09016,N,00917.73684,E,092917.00,A,A*6B
$IIMWV,130.0,R,5.6,k,A*19
$STALK,84,26,91,44,00,00,00,00,00
$IIHDM,214,M*3B
$IIDBT,,f,11.5,M,,F*24
$STALK,20,01,00,00
$STALK,23,01,10,3c
$STALK,26,04,00,00,00,00,00
$STALK,27,01,05,01
$STALK,60,0c,01,00,00,00,00,00,00,00,00,00,00,00,01
$IIMWV,182.0,R,5.6,k,A*10
$GPRMC,092918.00,A,3912.08910,N,00917.73593,E,4.669,213.02,130122,,,A*64
$GPVTG,213.02,T,,M,4.669,N,8.648,K,A*30
$GPGGA,092918.00,3912.08910,N,00917.73593,E,1,09,0.96,2.7,M,44.9,M,,*50
$GPGSA,A,3,30,20,05,14,13,07,15,09,02,,,,1.51,0.96,1.17*04
$GPGSV,4,1,13,02,08,227,29,05,58,288,26,07,35,051,37,08,01,050,*7B
$GPGSV,4,2,13,09,11,102,30,11,11,217,21,13,43,302,44,14,48,140,31*79
$GPGSV,4,3,13,15,14,297,41,18,04,326,27,20,61,223,25,28,34,162,35*74
$GPGSV,4,4,13,30,64,043,37*49
$GPGLL,3912.08910,N,00917.73593,E,092918.00,A,A*6F
$IIMWV,182.0,R,5.5,k,A*13
$STALK,84,26,91,43,00,00,00,00,00
$IIHDM,216,M*39
$IIDBT,,f,11.7,M,,F*26
$STALK,20,01,00,00
$STALK,23,01,10,3c
$STALK,26,04,00,00,00,00,00
$STALK,27,01,05,01
$IIMWV,112.0,R,5.5,k,A*1A
$GPRMC,092919.00,A,3912.08808,N,00917.73499,E,4.480,214.83,130122,,,A*6D
$GPVTG,214.83,T,,M,4.480,N,8.296,K,A*3C
$GPGGA,092919.00,3912.08808,N,00917.73499,E,1,09,0.96,2.8,M,44.9,M,,*5D
$GPGSA,A,3,30,20,05,14,13,07,15,09,02,,,,1.51,0.96,1.17*04
$GPGSV,4,1,13,02,08,227,23,05,58,288,32,07,35,051,34,08,01,050,*77
$GPGSV,4,2,13,09,11,102,22,11,11,216,22,13,43,302,37,14,48,140,31*7C
$GPGSV,4,3,13,15,14,297,41,18,04,326,33,20,61,223,30,28,34,162,32*72
$GPGSV,4,4,13,30,64,043,35*4B
$GPGLL,3912.08808,N,00917.73499,E,092919.00,A,A*6D
$IIMWV,112.0,R,5.7,k,A*18
$STALK,84,66,91,45,00,00,00,00,00
$IIHDM,216,M*39
$IIDBT,,f,11.9,M,,F*28
$STALK,20,01,00,00
$STALK,23,01,10,3c
$STALK,26,04,00,00,00,00,00
$STALK,27,01,05,01
$IIMWV,163.0,R,5.7,k,A*1E
$GPRMC,092920.00,A,3912.08707,N,00917.73408,E,4.351,216.13,130122,,,A*6F
$GPVTG,216.13,T,,M,4.351,N,8.059,K,A*3D
$GPGGA,092920.00,3912.08707,N,00917.73408,E,1,09,0.96,2.5,M,44.9,M,,*52
$GPGSA,A,3,30,20,05,14,13,07,15,09,02,,,,1.51,0.96,1.17*04
$GPGSV,4,1,13,02,08,227,25,05,58,288,37,07,35,051,34,08,01,050,*74
$GPGSV,4,2,13,09,11,102,23,11,11,216,22,13,43,302,32,14,48,140,27*7F
$GPGSV,4,3,13,15,14,297,41,18,04,326,29,20,61,223,24,28,34,162,31*7F
$GPGSV,4,4,13,30,64,043,40*49
$GPGLL,3912.08707,N,00917.73408,E,092920.00,A,A*6F
$IIMWV,163.0,R,4.9,k,A*11
$STALK,84,26,91,44,00,00,00,00,00
$IIHDM,214,M*3B
$IIDBT,,f,11.9,M,,F*28
$STALK,20,01,00,00
$STALK,23,01,10,3c
$STALK,26,04,00,00,00,00,00
$STALK,27,01,05,01
$IIMWV,149.0,R,4.9,k,A*19
$GPRMC,092921.00,A,3912.08604,N,00917.73312,E,4.556,215.63,130122,,,A*65
$GPVTG,215.63,T,,M,4.556,N,8.437,K,A*34
$GPGGA,092921.00,3912.08604,N,00917.73312,E,1,09,0.96,2.6,M,44.9,M,,*5E
$GPGSA,A,3,30,20,05,14,13,07,15,09,02,,,,1.51,0.96,1.17*04
$GPGSV,4,1,13,02,08,227,24,05,58,288,31,07,35,051,33,08,01,050,*74
$GPGSV,4,2,13,09,11,102,31,11,11,216,21,13,43,303,39,14,48,140,32*71
$GPGSV,4,3,13,15,14,297,40,18,04,326,36,20,61,223,24,28,34,162,32*73
$GPGSV,4,4,13,30,64,043,36*48
$GPGLL,3912.08604,N,00917.73312,E,092921.00,A,A*60
$IIMWV,149.0,R,5.3,k,A*12
$STALK,84,e6,90,44,00,00,00,00,00
$IIHDM,214,M*3B
$IIDBT,,f,12.3,M,,F*21
$STALK,20,01,00,00
$STALK,23,01,10,3c
$IIMWV,162.5,R,5.3,k,A*1E
$IIMWV,162.5,R,5.3,k,A*1E
$STALK,26,04,00,00,00,00,00
$GPRMC,092922.00,A,3912.08498,N,00917.73219,E,4.623,215.00,130122,,,A*6F
$GPVTG,215.00,T,,M,4.623,N,8.563,K,A*30
$GPGGA,092922.00,3912.08498,N,00917.73219,E,1,09,0.96,2.6,M,44.9,M,,*50
$GPGSA,A,3,30,20,05,14,13,07,15,09,02,,,,1.51,0.96,1.17*04
$GPGSV,4,1,13,02,08,227,23,05,58,288,34,07,35,051,33,08,01,050,*76
$GPGSV,4,2,13,09,11,102,24,11,11,216,21,13,43,303,40,14,48,140,32*7B
$GPGSV,4,3,13,15,14,297,42,18,04,326,32,20,61,223,35,28,34,162,37*70
$GPGSV,4,4,13,30,64,043,35*4B
$GPGLL,3912.08498,N,00917.73219,E,092922.00,A,A*6E
$STALK,27,01,05,01
$STALK,84,26,91,43,00,00,00,00,00
$IIHDM,214,M*3B
$IIDBT,,f,12.3,M,,F*21
$STALK,20,01,00,00
$STALK,23,01,10,3c
$IIMWV,161.5,R,5.3,k,A*1D
$IIMWV,161.5,R,5.2,k,A*1C
$STALK,26,04,00,00,00,00,00
$STALK,27,01,05,01
$GPRMC,092923.00,A,3912.08388,N,00917.73129,E,4.527,213.84,130122,,,A*65
$GPVTG,213.84,T,,M,4.527,N,8.385,K,A*33
$GPGGA,092923.00,3912.08388,N,00917.73129,E,1,09,0.96,2.5,M,44.9,M,,*54
$GPGSA,A,3,30,20,05,14,13,07,15,09,02,,,,1.51,0.96,1.17*04
$GPGSV,4,1,13,02,08,227,25,05,58,288,29,07,35,051,33,08,01,050,*7C
$GPGSV,4,2,13,09,11,102,27,11,11,216,23,13,43,303,38,14,48,140,29*7F
$GPGSV,4,3,13,15,14,297,41,18,04,326,31,20,61,223,35,28,34,162,35*72
$GPGSV,4,4,13,30,64,043,36*48
$GPGLL,3912.08388,N,00917.73129,E,092923.00,A,A*69
$STALK,60,0c,01,00,00,00,00,00,00,00,00,00,00,00,01
$STALK,84,26,91,44,00,00,00,00,00
$IIHDM,214,M*3B
$IIMWV,164.5,R,5.2,k,A*19
$IIMWV,164.5,R,5.2,k,A*19
$IIDBT,,f,12.7,M,,F*25
$STALK,20,01,00,00
$STALK,23,01,10,3c
$STALK,26,04,00,00,00,00,00
$GPRMC,092924.00,A,3912.08276,N,00917.73037,E,4.719,214.50,130122,,,A*6D
$GPVTG,214.50,T,,M,4.719,N,8.739,K,A*31
$GPGGA,092924.00,3912.08276,N,00917.73037,E,1,09,0.96,2.3,M,44.9,M,,*5B
$GPGSA,A,3,30,20,05,14,13,07,15,09,02,,,,1.51,0.96,1.17*04
$GPGSV,4,1,13,02,08,227,26,05,58,288,33,07,35,051,35,08,01,050,*72
$GPGSV,4,2,13,09,11,102,31,11,11,216,24,13,43,303,39,14,48,140,31*77
$GPGSV,4,3,13,15,14,297,39,18,04,326,32,20,61,223,26,28,34,162,35*7C
$GPGSV,4,4,13,30,64,043,38*46
$GPGLL,3912.08276,N,00917.73037,E,092924.00,A,A*60
$STALK,27,01,05,01
$STALK,84,26,91,44,00,00,00,00,00
$IIHDM,216,M*39
$IIMWV,181.5,R,5.2,k,A*12
$IIMWV,181.5,R,5.3,k,A*13
$IIDBT,,f,11.4,M,,F*25
$STALK,20,01,00,00
$STALK,23,01,10,3c
$STALK,26,04,00,00,00,00,00
$GPRMC,092925.00,A,3912.08166,N,00917.72936,E,4.688,215.75,130122,,,A*68
$GPVTG,215.75,T,,M,4.688,N,8.682,K,A*3F
$GPGGA,092925.00,3912.08166,N,00917.72936,E,1,09,0.96,2.4,M,44.9,M,,*56
$GPGSA,A,3,30,20,05,14,13,07,15,09,02,,,,1.51,0.96,1.17*04
$GPGSV,4,1,13,02,08,227,25,05,58,288,32,07,35,051,32,08,01,050,*77
$GPGSV,4,2,13,09,11,102,23,11,11,216,21,13,43,303,42,14,48,140,34*78
$GPGSV,4,3,13,15,14,297,41,18,04,326,33,20,61,223,26,28,34,162,28*7E
$GPGSV,4,4,13,30,64,043,35*4B
$GPGLL,3912.08166,N,00917.72936,E,092925.00,A,A*6A
$STALK,27,01,05,01
$STALK,84,66,91,46,00,00,00,00,00
$IIMWV,145.5,R,5.3,k,A*1B
$IIMWV,145.5,R,5.0,k,A*18
$IIHDM,214,M*3B
$IIDBT,,f,11.7,M,,F*26
$STALK,20,01,00,00
$STALK,23,01,10,3c
$STALK,26,04,00,00,00,00,00
$GPRMC,092926.00,A,3912.08060,N,00917.72836,E,4.594,215.59,130122,,,A*6D
$GPVTG,215.59,T,,M,4.594,N,8.507,K,A*31
$GPGGA,092926.00,3912.08060,N,00917.72836,E,1,09,0.96,2.5,M,44.9,M,,*52
$GPGSA,A,3,30,20,05,14,13,07,15,09,02,,,,1.51,0.96,1.17*04
$GPGSV,4,1,13,02,08,227,23,05,58,288,27,07,35,051,36,08,01,050,*71
$GPGSV,4,2,13,09,11,102,27,11,11,216,18,13,43,303,43,14,48,140,33*70
$GPGSV,4,3,13,15,14,297,41,18,04,326,33,20,61,223,25,28,34,162,33*77
$GPGSV,4,4,13,30,64,043,38*46
$GPGLL,3912.08060,N,00917.72836,E,092926.00,A,A*6F
$STALK,27,01,05,01
$STALK,84,a6,90,42,00,00,00,00,00
$IIMWV,180.5,R,5.0,k,A*11
$IIMWV,180.5,R,5.3,k,A*12
$IIDBT,,f,11.7,M,,F*26
$STALK,20,01,00,00
$IIHDM,214,M*3B
$STALK,23,01,10,3c
$STALK,26,04,00,00,00,00,00
$GPRMC,092927.00,A,3912.07957,N,00917.72741,E,4.548,215.05,130122,,,A*69
$GPVTG,215.05,T,,M,4.548,N,8.424,K,A*39
$GPGGA,092927.00,3912.07957,N,00917.72741,E,1,09,0.96,2.4,M,44.9,M,,*5F
$GPGSA,A,3,30,20,05,14,13,07,15,09,02,,,,1.51,0.96,1.17*04
$GPGSV,4,1,13,02,08,227,22,05,58,288,32,07,35,051,35,08,01,050,*77
$GPGSV,4,2,13,09,11,102,26,11,11,216,18,13,43,303,44,14,48,140,33*76
$GPGSV,4,3,13,15,14,297,42,18,04,326,34,20,61,223,32,28,34,162,35*73
$GPGSV,4,4,13,30,64,043,38*46
$GPGLL,3912.07957,N,00917.72741,E,092927.00,A,A*63
$STALK,27,01,05,01
$STALK,99,00,00
$STALK,84,a6,91,46,00,00,00,00,00
$IIMWV,163.0,R,5.3,k,A*1A
$IIMWV,163.0,R,5.1,k,A*18
$IIDBT,,f,11.7,M,,F*26
$STALK,20,01,00,00
$STALK,23,01,10,3c
$IIHDM,214,M*3B
$STALK,26,04,00,00,00,00,00
$STALK,27,01,05,01
$GPRMC,092928.00,A,3912.07846,N,00917.72653,E,4.544,214.02,130122,,,A*6F
$GPVTG,214.02,T,,M,4.544,N,8.416,K,A*32
$GPGGA,092928.00,3912.07846,N,00917.72653,E,1,09,0.96,2.1,M,44.9,M,,*56
$GPGSA,A,3,30,20,05,14,13,07,15,09,02,,,,1.51,0.96,1.17*04
$GPGSV,4,1,13,02,08,227,25,05,58,288,30,07,35,051,35,08,01,050,*72
$GPGSV,4,2,13,09,11,102,26,11,11,216,20,13,43,303,39,14,48,140,29*7C
$GPGSV,4,3,13,15,14,297,40,18,04,326,30,20,61,223,32,28,34,162,37*77
$GPGSV,4,4,13,30,64,043,36*48
$GPGLL,3912.07846,N,00917.72653,E,092928.00,A,A*6F
$STALK,60,0c,01,00,00,00,00,00,00,00,00,00,00,00,01
$IIMWV,136.5,R,5.1,k,A*1D
$IIMWV,136.5,R,6.5,k,A*1A
$STALK,84,26,91,43,00,00,00,00,00
$IIDBT,,f,12.1,M,,F*23
$STALK,20,01,00,00
$STALK,23,01,10,3c
$STALK,26,04,00,00,00,00,00
$STALK,27,01,05,01
$GPRMC,092929.00,A,3912.07733,N,00917.72550,E,4.543,216.78,130122,,,A*6B
$GPVTG,216.78,T,,M,4.543,N,8.414,K,A*38
$GPGGA,092929.00,3912.07733,N,00917.72550,E,1,09,0.96,2.4,M,44.9,M,,*5F
$GPGSA,A,3,30,20,05,14,13,07,15,09,02,,,,1.51,0.96,1.17*04
$GPGSV,4,1,13,02,08,227,26,05,58,288,39,07,35,051,27,08,01,050,*7B
$GPGSV,4,2,13,09,11,102,29,11,11,216,20,13,43,303,39,14,48,140,34*7F
$GPGSV,4,3,13,15,14,297,42,18,04,326,30,20,61,223,26,28,34,162,33*74
$GPGSV,4,4,13,30,64,043,39*47
$GPGLL,3912.07733,N,00917.72550,E,092929.00,A,A*63
$IIHDM,216,M*39
$IIMWV,119.0,R,6.5,k,A*12
$IIMWV,119.0,R,6.2,k,A*15
$STALK,84,e6,92,4b,00,00,00,00,00
$IIDBT,,f,12.5,M,,F*27
$STALK,20,01,00,00
$STALK,23,01,10,3c
$STALK,26,04,00,00,00,00,00
$STALK,27,01,05,01
$GPRMC,092930.00,A,3912.07643,N,00917.72451,E,4.252,218.20,130122,,,A*61
$GPVTG,218.20,T,,M,4.252,N,7.874,K,A*39
$GPGGA,092930.00,3912.07643,N,00917.72451,E,1,09,0.96,2.3,M,44.9,M,,*56
$GPGSA,A,3,30,20,05,14,13,07,15,09,02,,,,1.51,0.96,1.17*04
$GPGSV,4,1,13,02,08,227,24,05,58,288,29,07,35,051,35,08,01,050,*7B
$GPGSV,4,2,13,09,11,102,17,11,11,216,20,13,43,303,35,14,48,140,34*7E
$GPGSV,4,3,13,15,14,297,44,18,04,326,18,20,61,223,25,28,34,162,29*70
$GPGSV,4,4,13,30,64,043,39*47
$GPGLL,3912.07643,N,00917.72451,E,092930.00,A,A*6D
$IIHDM,218,M*37
$IIMWV,176.5,R,6.2,k,A*19
$IIMWV,176.5,R,5.4,k,A*1C
$STALK,84,66,91,46,00,00,00,00,00
$IIDBT,,f,12.6,M,,F*24
$STALK,20,01,00,00
$STALK,23,01,10,3c
$STALK,26,04,00,00,00,00,00
$STALK,27,01,05,01
$GPRMC,092931.00,A,3912.07541,N,00917.72351,E,4.912,214.77,130122,,,A*67
$GPVTG,214.77,T,,M,4.912,N,9.098,K,A*3C
$GPGGA,092931.00,3912.07541,N,00917.72351,E,1,09,0.96,2.3,M,44.9,M,,*51
$GPGSA,A,3,30,20,05,14,13,07,15,09,02,,,,1.51,0.96,1.17*04
$GPGSV,4,1,13,02,08,227,23,05,58,288,31,07,35,051,36,08,01,050,*76
$GPGSV,4,2,13,09,11,102,17,11,11,216,19,13,43,303,42,14,48,140,32*72
$GPGSV,4,3,13,15,14,297,40,18,04,326,29,20,61,223,28,28,34,162,37*74
$GPGSV,4,4,13,30,64,043,36*48
$GPGLL,3912.07541,N,00917.72351,E,092931.00,A,A*6A
$IIHDM,214,M*3B
$IIMWV,131.5,R,5.4,k,A*1F
$IIMWV,131.5,R,5.2,k,A*19
$IIDBT,,f,12.7,M,,F*25
$STALK,84,e6,91,47,00,00,00,00,00
$STALK,20,01,00,00
$STALK,23,01,10,3c
$STALK,26,04,00,00,00,00,00
$STALK,27,01,05,01
$GPRMC,092932.00,A,3912.07419,N,00917.72250,E,4.777,213.80,130122,,,A*6A
$GPVTG,213.80,T,,M,4.777,N,8.848,K,A*3A
$GPGGA,092932.00,3912.07419,N,00917.72250,E,1,09,0.96,2.4,M,44.9,M,,*59
$GPGSA,A,3,30,20,05,14,13,07,15,09,02,,,,1.51,0.96,1.17*04
$GPGSV,4,1,13,02,08,227,22,05,58,288,34,07,35,051,38,08,01,050,*7C
$GPGSV,4,2,13,09,11,102,21,11,11,216,20,13,43,303,41,14,48,140,33*7F
$GPGSV,4,3,13,15,14,297,40,18,04,326,33,20,61,223,36,28,34,162,34*73
$GPGSV,4,4,13,30,64,043,40*49
$GPGLL,3912.07419,N,00917.72250,E,092932.00,A,A*65
$IIHDM,216,M*39
$IIMWV,159.5,R,5.2,k,A*17
$IIMWV,159.5,R,6.9,k,A*1F
$IIDBT,,f,13.0,M,,F*23
$STALK,20,01,00,00
$STALK,23,01,10,3c
$STALK,84,e6,91,47,00,00,00,00,00
$STALK,26,04,00,00,00,00,00
$STALK,27,01,05,01
$STALK,60,0c,01,00,00,00,00,00,00,00,00,00,00,00,01
$GPRMC,092933.00,A,3912.07316,N,00917.72150,E,4.545,215.91,130122,,,A*65
$GPVTG,215.91,T,,M,4.545,N,8.417,K,A*39
$GPGGA,092933.00,3912.07316,N,00917.72150,E,1,09,0.96,2.5,M,44.9,M,,*52
$GPGSA,A,3,30,20,05,14,13,07,15,09,02,,,,1.51,0.96,1.17*04
$GPGSV,4,1,13,02,08,227,24,05,58,288,41,07,35,051,32,08,01,050,*72
$GPGSV,4,2,13,09,11,102,23,11,11,216,20,13,43,303,35,14,48,140,27*7B
$GPGSV,4,3,13,15,14,297,43,18,04,326,29,20,61,223,36,28,34,162,29*77
$GPGSV,4,4,13,30,64,043,37*49
$GPGLL,3912.07316,N,00917.72150,E,092933.00,A,A*6F
$IIHDM,216,M*39
$IIMWV,153.5,R,6.9,k,A*15
$IIMWV,153.5,R,6.6,k,A*1A
$IIDBT,,f,13.2,M,,F*21
$STALK,20,01,00,00
$STALK,23,01,10,3c
$STALK,26,04,00,00,00,00,00
$STALK,84,26,92,49,00,00,00,00,00
$GPRMC,092934.00,A,3912.07209,N,00917.72055,E,4.618,215.47,130122,,,A*69
$GPVTG,215.47,T,,M,4.618,N,8.552,K,A*39
$GPGGA,092934.00,3912.07209,N,00917.72055,E,1,09,0.96,2.4,M,44.9,M,,*5F
$GPGSA,A,3,30,20,05,14,13,07,15,09,02,,,,1.51,0.96,1.17*04
$GPGSV,4,1,13,02,08,227,25,05,58,288,26,07,35,051,34,08,01,050,*74
$GPGSV,4,2,13,09,11,102,22,11,11,216,20,13,43,303,35,14,48,140,32*7E
$GPGSV,4,3,13,15,14,297,43,18,04,326,31,20,61,223,27,28,34,162,29*7E
$GPGSV,4,4,13,30,64,043,39*47
$GPGLL,3912.07209,N,00917.72055,E,092934.00,A,A*63
$STALK,27,01,05,01
$IIHDM,216,M*39
$IIMWV,195.5,R,6.6,k,A*10
$IIMWV,195.5,R,5.8,k,A*1D
$IIDBT,,f,13.4,M,,F*27
$STALK,20,01,00,00
$STALK,23,01,10,3c
$STALK,26,04,00,00,00,00,00
$STALK,27,01,05,01
$GPRMC,092935.00,A,3912.07102,N,00917.71960,E,4.649,214.47,130122,,,A*69
$GPVTG,214.47,T,,M,4.649,N,8.609,K,A*31
$GPGGA,092935.00,3912.07102,N,00917.71960,E,1,09,0.96,2.1,M,44.9,M,,*5F
$GPGSA,A,3,30,20,05,14,13,07,15,09,02,,,,1.51,0.96,1.17*04
$GPGSV,4,1,13,02,08,227,26,05,58,288,25,07,35,051,33,08,01,050,*73
$GPGSV,4,2,13,09,11,102,21,11,11,216,20,13,43,303,39,14,48,140,33*70
$GPGSV,4,3,13,15,14,297,40,18,04,326,34,20,61,223,25,28,34,162,34*76
$GPGSV,4,4,13,30,64,043,39*47
$GPGLL,3912.07102,N,00917.71960,E,092935.00,A,A*66
$STALK,84,66,91,46,00,00,00,00,00
$IIHDM,216,M*39
$IIMWV,152.0,R,5.8,k,A*13
$IIMWV,152.0,R,4.9,k,A*13
$IIDBT,,f,13.4,M,,F*27
$STALK,20,01,00,00
$STALK,23,01,10,3c
$STALK,26,04,00,00,00,00,00
$STALK,27,01,05,01
$GPRMC,092936.00,A,3912.06993,N,00917.71860,E,4.728,215.22,130122,,,A*6E
$GPVTG,215.22,T,,M,4.728,N,8.756,K,A*3E
$GPGGA,092936.00,3912.06993,N,00917.71860,E,1,09,0.96,2.1,M,44.9,M,,*5C
$GPGSA,A,3,30,20,05,14,13,07,15,09,02,,,,1.51,0.96,1.17*04
$GPGSV,4,1,13,02,08,227,25,05,58,288,30,07,35,051,34,08,01,050,*73
$GPGSV,4,2,13,09,11,102,20,11,11,216,22,13,43,303,39,14,48,140,33*73
$GPGSV,4,3,13,15,14,297,43,18,04,326,30,20,61,223,32,28,34,162,31*72
$GPGSV,4,4,13,30,64,043,40*49
$GPGLL,3912.06993,N,00917.71860,E,092936.00,A,A*65
$STALK,84,66,92,49,00,00,00,00,00
$IIHDM,218,M*37
$IIMWV,165.0,R,4.9,k,A*17
$IIMWV,165.0,R,5.8,k,A*17
$IIDBT,,f,13.5,M,,F*26
$STALK,20,01,00,00
$STALK,23,01,10,3c
$STALK,26,04,00,00,00,00,00
$STALK,27,01,05,01
$GPRMC,092937.00,A,3912.06890,N,00917.71745,E,4.563,217.22,130122,,,A*6A
$GPVTG,217.22,T,,M,4.563,N,8.450,K,A*34
$GPGGA,092937.00,3912.06890,N,00917.71745,E,1,09,0.96,2.5,M,44.9,M,,*53
$GPGSA,A,3,30,20,05,14,13,07,15,09,02,,,,1.51,0.96,1.17*04
$GPGSV,4,1,13,02,08,227,23,05,58,288,34,07,35,051,35,08,01,050,*70
$GPGSV,4,2,13,09,11,102,18,11,11,216,21,13,43,303,42,14,48,140,33*77
$GPGSV,4,3,13,15,14,297,42,18,04,326,34,20,61,223,31,28,34,162,32*77
$GPGSV,4,4,13,30,64,043,41*48
$GPGLL,3912.06890,N,00917.71745,E,092937.00,A,A*6E
$STALK,84,e6,91,48,00,00,00,00,00
$IIMWV,174.5,R,5.8,k,A*12
$IIMWV,174.5,R,5.7,k,A*1D
$IIHDM,216,M*39
$IIDBT,,f,13.5,M,,F*26
$STALK,20,01,00,00
$STALK,99,00,00
$STALK,23,01,10,3c
$STALK,26,04,00,00,00,00,00
$STALK,27,01,05,01
$STALK,60,0c,01,00,00,00,00,00,00,00,00,00,00,00,01
$GPRMC,092938.00,A,3912.06792,N,00917.71630,E,4.828,216.97,130122,,,A*66
$GPVTG,216.97,T,,M,4.828,N,8.941,K,A*34
$GPGGA,092938.00,3912.06792,N,00917.71630,E,1,09,0.96,2.9,M,44.9,M,,*5E
$GPGSA,A,3,30,20,05,14,13,07,15,09,02,,,,1.51,0.96,1.17*04
$GPGSV,4,1,13,02,08,227,22,05,58,288,30,07,35,051,38,08,01,050,*78
$GPGSV,4,2,13,09,11,102,30,11,11,216,20,13,43,303,42,14,48,140,28*76
$GPGSV,4,3,13,15,14,297,42,18,04,326,31,20,61,223,34,28,34,162,32*77
$GPGSV,4,4,13,30,63,043,39*40
$GPGLL,3912.06792,N,00917.71630,E,092938.00,A,A*6F
$STALK,84,e6,91,46,00,00,00,00,00
$IIMWV,164.0,R,5.7,k,A*19
$IIMWV,164.0,R,6.3,k,A*1E
$IIHDM,216,M*39
$IIDBT,,f,13.7,M,,F*24
$STALK,20,01,00,00
$STALK,23,01,10,3c
$STALK,26,04,00,00,00,00,00
$GPRMC,092939.00,A,3912.06691,N,00917.71530,E,4.699,216.03,130122,,,A*6F
$GPVTG,216.03,T,,M,4.699,N,8.702,K,A*34
$GPGGA,092939.00,3912.06691,N,00917.71530,E,1,09,0.96,3.0,M,44.9,M,,*56
$GPGSA,A,3,30,20,05,14,13,07,15,09,02,,,,1.51,0.96,1.17*04
$GPGSV,4,1,13,02,08,227,19,05,58,288,31,07,35,051,34,08,01,050,*7D
$GPGSV,4,2,13,09,11,102,20,11,11,216,22,13,43,303,32,14,48,140,34*7F
$GPGSV,4,3,13,15,14,297,42,18,04,326,30,20,61,223,23,28,34,162,33*71
$GPGSV,4,4,13,30,63,043,35*4C
$GPGLL,3912.06691,N,00917.71530,E,092939.00,A,A*6F
$STALK,27,01,05,01
$STALK,84,66,90,43,00,00,00,00,00
$IIMWV,174.0,R,6.3,k,A*1F
$IIMWV,174.0,R,6.0,k,A*1C
$IIHDM,212,M*3D
$IIDBT,,f,13.6,M,,F*25
$STALK,20,01,00,00
$STALK,23,01,10,3c
$STALK,26,04,00,00,00,00,00
$GPRMC,092940.00,A,3912.06582,N,00917.71444,E,4.583,213.27,130122,,,A*69
$GPVTG,213.27,T,,M,4.583,N,8.487,K,A*31
$GPGGA,092940.00,3912.06582,N,00917.71444,E,1,09,0.96,2.9,M,44.9,M,,*53
$GPGSA,A,3,30,20,05,14,13,07,15,09,02,,,,1.51,0.96,1.17*04
$GPGSV,4,1,13,02,08,227,19,05,58,288,37,07,35,051,29,08,01,050,*77
$GPGSV,4,2,13,09,11,102,22,11,11,216,26,13,43,303,37,14,48,140,31*79
$GPGSV,4,3,13,15,14,297,40,18,04,326,28,20,61,223,32,28,34,162,36*7F
$GPGSV,4,4,13,30,63,043,36*4F
$GPGLL,3912.06582,N,00917.71444,E,092940.00,A,A*62
$STALK,27,01,05,01
$IIMWV,180.5,R,6.0,k,A*12
$IIMWV,180.5,R,6.3,k,A*11
$STALK,84,66,8f,3e,00,00,00,00,00
$IIHDM,212,M*3D
$IIDBT,,f,13.6,M,,F*25
$STALK,20,01,00,00
$STALK,23,01,10,3c
$STALK,26,04,00,00,00,00,00
$STALK,27,01,05,01
$GPRMC,092941.00,A,3912.06469,N,00917.71357,E,4.689,212.02,130122,,,A*66
$GPVTG,212.02,T,,M,4.689,N,8.684,K,A*3F
$GPGGA,092941.00,3912.06469,N,00917.71357,E,1,09,0.96,2.9,M,44.9,M,,*53
$GPGSA,A,3,30,20,05,14,13,07,15,09,02,,,,1.51,0.96,1.17*04
